SALE TYPE,SOLD DATE,PROPERTY TYPE,ADDRESS,CITY,STATE OR PROVINCE,ZIP OR POSTAL CODE,PRICE,BEDS,BATHS,LOCATION,SQUARE FEET,LOT SIZE,YEAR BUILT,DAYS ON MARKET,$/SQUARE FEET,HOA/MONTH,STATUS,NEXT OPEN HOUSE START TIME,NEXT OPEN HOUSE END TIME,URL (SEE http://www.redfin.com/buy-a-home/comparative-market-analysis FOR INFO ON PRICING),SOURCE,MLS#,FAVORITE,INTERESTED,LATITUDE,LONGITUDE
PAST SALE,May-7-2021,Single Family Residential,149 Chestnut St,SAN CARLOS,CA,94070,2670000,3,2.0,SAN CARLOS,1981,5940,1947,114,1348,,Sold,,,http://www.redfin.com/CA/San-Carlos/149-Chestnut-St-94070/home/770974,MLSListings,ML81836007,Y,Y,37.5096274,-122.2682023
PAST SALE,March-9-2021,Single Family Residential,262 Cedar St,SAN CARLOS,CA,94070,1900800,4,2.0,SAN CARLOS,1790,5170,1952,173,1062,,Sold,,,http://www.redfin.com/CA/San-Carlos/262-Cedar-St-94070/home/785295,MLSListings,ML81827491,N,Y,37.5077967,-122.2691771
PAST SALE,June-23-2021,Single Family Residential,428 Sycamore St,SAN CARLOS,CA,94070,2400000,3,2.0,SAN CARLOS,1790,5650,1956,67,1341,,Sold,,,http://www.redfin.com/CA/San-Carlos/428-Sycamore-St-94070/home/1808227,MLSListings,ML81848528,N,Y,37.5042131,-122.2683574
PAST SALE,June-9-2021,Single Family Residential,1612 Chula Vista Dr,BELMONT,CA,94002,2100000,5,3.0,BELMONT,1660,6256,1954,81,1265,,Sold,,,http://www.redfin.com/CA/Belmont/1612-Chula-Vista-Dr-94002/home/767076,MLSListings,ML81842247,N,Y,37.5111681,-122.2868101
PAST SALE,June-23-2021,Single Family Residential,1021 Palomar Dr,REDWOOD CITY,CA,94062,1750000,4,3.5,REDWOOD CITY,2920,54792,1966,67,599,,Sold,,,http://www.redfin.com/CA/Palomar-Park/1021-Palomar-Dr-94062/home/1815862,MLSListings,ML81847177,N,Y,37.4798535,-122.2755572
PAST SALE,April-7-2021,Single Family Residential,33 Maple Way,SAN CARLOS,CA,94070,2105000,4,3.0,SAN CARLOS,1620,6700,1953,144,1299,,Sold,,,http://www.redfin.com/CA/San-Carlos/33-Maple-Way-94070/home/799041,MLSListings,ML81831478,N,Y,37.4849342,-122.2625751
PAST SALE,March-12-2021,Single Family Residential,12 Wildwood Ave,SAN CARLOS,CA,94070,2525000,3,2.0,SAN CARLOS,1670,7874,1941,170,1512,,Sold,,,http://www.redfin.com/CA/San-Carlos/12-Wildwood-Ave-94070/home/1239515,MLSListings,ML81832441,N,Y,37.4913513,-122.2606697
PAST SALE,July-20-2021,Single Family Residential,632 Palomar Dr,REDWOOD CITY,CA,94062,2200000,3,2.5,REDWOOD CITY,2935,33976,1987,40,750,,Sold,,,http://www.redfin.com/CA/Redwood-City/632-Palomar-Dr-94062/home/1370601,MLSListings,ML81844257,N,Y,37.4816369,-122.2697088
PAST SALE,July-28-2021,Single Family Residential,160 Rogers Ave,SAN CARLOS,CA,94070,2150000,3,2.0,SAN CARLOS,1587,4840,1950,32,1355,,Sold,,,http://www.redfin.com/CA/San-Carlos/160-Rogers-Ave-94070/home/2042960,MLSListings,ML81850765,Y,Y,37.4907216,-122.2667845
PAST SALE,July-27-2021,Single Family Residential,2424 Saint Francis Way,SAN CARLOS,CA,94070,1800000,3,1.5,SAN CARLOS,1320,5225,1950,33,1364,,Sold,,,http://www.redfin.com/CA/San-Carlos/2424-St-Francis-Way-94070/home/1699652,MLSListings,ML81849902,Y,Y,37.4854659,-122.2584984
PAST SALE,,Single Family Residential,24 Sunnydale Ave,San Carlos,CA,94070,2200000,3,2.0,,1900,5500,1929,,1158,,,,,http://www.redfin.com/CA/San-Carlos/24-Sunnydale-Ave-94070/home/1059639,,,N,Y,37.4929979,-122.2472869
PAST SALE,April-15-2021,Single Family Residential,302 Edgewood Rd,REDWOOD CITY,CA,94062,2948000,4,2.5,REDWOOD CITY,2560,6710,1930,136,1152,,Sold,,,http://www.redfin.com/CA/Redwood-City/302-Edgewood-Rd-94062/home/1983869,MLSListings,ML81832641,N,Y,37.4898112,-122.2459574
PAST SALE,July-21-2021,Single Family Residential,215 Oakdale St,REDWOOD CITY,CA,94062,2100000,4,3.0,REDWOOD CITY,2100,6160,1930,39,1000,,Sold,,,http://www.redfin.com/CA/Redwood-City/215-Oakdale-St-94062/home/805738,MLSListings,ML81848500,Y,Y,37.4899203,-122.2460903
PAST SALE,June-22-2021,Single Family Residential,202 Timothy Dr,SAN CARLOS,CA,94070,3000000,4,2.5,SAN CARLOS,2543,7644,1973,68,1180,,Sold,,,http://www.redfin.com/CA/San-Carlos/202-Timothy-Dr-94070/home/1616412,MLSListings,ML81843935,N,Y,37.4841837,-122.2616002
PAST SALE,June-18-2021,Single Family Residential,1318 Pebble Dr,SAN CARLOS,CA,94070,2775000,3,2.0,SAN CARLOS,1760,9798,1968,72,1577,,Sold,,,http://www.redfin.com/CA/San-Carlos/1318-Pebble-Dr-94070/home/794458,MLSListings,ML81846294,Y,Y,37.4800237,-122.2789243
PAST SALE,June-7-2021,Single Family Residential,255 Ruby Ave,SAN CARLOS,CA,94070,3000000,4,3.5,SAN CARLOS,2207,4400,1946,83,1359,,Sold,,,http://www.redfin.com/CA/San-Carlos/255-Ruby-Ave-94070/home/797203,MLSListings,ML81842313,N,Y,37.4858666,-122.2552193
PAST SALE,,Single Family Residential,215 Ruby Ave,San Carlos,CA,94070,735000,3,2.0,,1790,8800,1942,,411,,,,,http://www.redfin.com/CA/San-Carlos/215-Ruby-Ave-94070/home/1725849,,,N,Y,37.4864602,-122.2559726
PAST SALE,April-7-2021,Single Family Residential,30 Avondale Ave,REDWOOD CITY,CA,94062,2850000,5,4.5,REDWOOD CITY,3447,6650,2020,144,827,,Sold,,,http://www.redfin.com/CA/Redwood-City/30-Avondale-Ave-94062/home/1434255,MLSListings,ML81824257,N,Y,37.4922104,-122.2436085
PAST SALE,May-10-2021,Single Family Residential,2901 Franciscan Ct,SAN CARLOS,CA,94070,2200000,4,2.5,SAN CARLOS,2280,6120,1957,111,965,,Sold,,,http://www.redfin.com/CA/San-Carlos/2901-Franciscan-Ct-94070/home/1332640,MLSListings,ML81836737,N,Y,37.4852129,-122.2671832
PAST SALE,April-12-2021,Single Family Residential,35 Elston Ct,SAN CARLOS,CA,94070,2890000,3,2.0,SAN CARLOS,2550,6300,1979,139,1133,,Sold,,,http://www.redfin.com/CA/San-Carlos/35-Elston-Ct-94070/home/1903622,MLSListings,ML81832483,N,Y,37.4977805,-122.2770846
PAST SALE,,Single Family Residential,1392 Rosewood Ave,San Carlos,CA,94070,1700000,3,2.0,,1830,5537,1945,,929,,,,,http://www.redfin.com/CA/San-Carlos/1392-Rosewood-Ave-94070/home/1856849,,,N,Y,37.4952881,-122.2522946
PAST SALE,April-2-2021,Single Family Residential,2384 Brittan Ave,SAN CARLOS,CA,94070,1991000,3,2.0,SAN CARLOS,1800,6000,1953,149,1106,,Sold,,,http://www.redfin.com/CA/San-Carlos/2384-Brittan-Ave-94070/home/1089393,MLSListings,ML81831529,N,Y,37.4915789,-122.2653223
PAST SALE,May-19-2021,Single Family Residential,924 Heather Dr,SAN CARLOS,CA,94070,3600000,4,3.0,SAN CARLOS,2800,8870,1994,102,1286,42,Sold,,,http://www.redfin.com/CA/San-Carlos/924-Heather-Dr-94070/home/798651,MLSListings,ML81840353,N,Y,37.494827,-122.2703734
PAST SALE,,Single Family Residential,834 Edgewood Rd,Redwood City,CA,94062,4500000,5,5.0,,4050,33350,1948,,1111,,,,,http://www.redfin.com/CA/Redwood-City/834-Edgewood-Rd-94062/home/804354,,,N,Y,37.4864706,-122.2501674
PAST SALE,April-28-2021,Single Family Residential,1944 Eaton Ave,SAN CARLOS,CA,94070,2900000,4,2.5,SAN CARLOS,2312,5530,1950,123,1254,,Sold,,,http://www.redfin.com/CA/San-Carlos/1944-Eaton-Ave-94070/home/1815815,MLSListings,ML81839189,N,Y,37.48772,-122.2506106
PAST SALE,June-10-2021,Single Family Residential,1332 Pebble Dr,SAN CARLOS,CA,94070,3675000,4,5.0,SAN CARLOS,4250,17536,1998,80,865,,Sold,,,http://www.redfin.com/CA/San-Carlos/1332-Pebble-Dr-94070/home/1991675,MLSListings,ML81837321,Y,Y,37.4794698,-122.2791458
PAST SALE,,Single Family Residential,148 Ruby Ave,San Carlos,CA,94070,3300000,4,4.0,,3203,8050,1950,,1030,,,,,http://www.redfin.com/CA/San-Carlos/148-Ruby-Ave-94070/home/1659710,,,N,Y,37.4876711,-122.2575236
PAST SALE,April-28-2021,Single Family Residential,133 Ruby Ave,SAN CARLOS,CA,94070,2620000,4,3.0,SAN CARLOS,2202,4400,1946,123,1190,,Sold,,,http://www.redfin.com/CA/San-Carlos/133-Ruby-Ave-94070/home/1983844,MLSListings,ML81835618,N,Y,37.4882458,-122.2574792
PAST SALE,May-10-2021,Single Family Residential,635 Park Ave,SAN CARLOS,CA,94070,2516888,3,2.0,SAN CARLOS,1492,6050,1945,111,1687,,Sold,,,http://www.redfin.com/CA/San-Carlos/635-Park-Ave-94070/home/1192771,MLSListings,ML81836505,Y,Y,37.4882618,-122.2525161
PAST SALE,,Single Family Residential,386 Glenwood St,San Carlos,CA,94070,2000000,2,1.0,,1220,10000,1939,,1639,,,,,http://www.redfin.com/CA/San-Carlos/386-Glenwood-St-94070/home/1415943,,,N,Y,37.5064901,-122.2669617
PAST SALE,March-22-2021,Single Family Residential,2763 San Carlos Ave,SAN CARLOS,CA,94070,1850000,3,2.0,SAN CARLOS,1240,7000,1954,160,1492,,Sold,,,http://www.redfin.com/CA/San-Carlos/2763-San-Carlos-Ave-94070/home/1987937,MLSListings,ML81835319,N,Y,37.5069763,-122.2848608
PAST SALE,June-4-2021,Single Family Residential,338 Cedar St,SAN CARLOS,CA,94070,1625000,2,1.0,SAN CARLOS,1060,6650,1942,86,1533,,Sold,,,http://www.redfin.com/CA/San-Carlos/338-Cedar-St-94070/home/2040969,MLSListings,ML81847320,N,Y,37.50636,-122.2682466
PAST SALE,May-28-2021,Single Family Residential,976 Holly St,SAN CARLOS,CA,94070,1351000,2,1.0,SAN CARLOS,1040,5850,1940,93,1299,,Sold,,,http://www.redfin.com/CA/San-Carlos/976-Holly-St-94070/home/1766369,MLSListings,ML81840546,N,Y,37.5108003,-122.2596948
PAST SALE,July-26-2021,Single Family Residential,1024 Inverness Dr,SAN CARLOS,CA,94070,1510000,2,1.0,SAN CARLOS,820,5000,1948,34,1841,,Sold,,,http://www.redfin.com/CA/San-Carlos/1024-Inverness-Dr-94070/home/2034047,MLSListings,ML81849496,N,Y,37.5119407,-122.2620876
PAST SALE,,Single Family Residential,326 Elm St,San Carlos,CA,94070,2375000,3,2.0,,1750,12750,1926,,1357,,,,,http://www.redfin.com/CA/San-Carlos/326-Elm-St-94070/home/1080653,,,N,Y,37.5085898,-122.2662084
PAST SALE,,Single Family Residential,126 Kelton Ave,San Carlos,CA,94070,1900000,4,2.0,,1610,4715,1948,,1180,,,,,http://www.redfin.com/CA/San-Carlos/126-Kelton-Ave-94070/home/1760874,,,N,Y,37.489409,-122.2514526
PAST SALE,March-31-2021,Single Family Residential,1657 Molitor Rd,BELMONT,CA,94002,1700000,3,2.0,BELMONT,1270,6660,1952,151,1339,,Sold,,,http://www.redfin.com/CA/Belmont/1657-Molitor-Rd-94002/home/768456,MLSListings,ML81836771,N,Y,37.5120367,-122.2712524
PAST SALE,June-25-2021,Single Family Residential,58 Chestnut St,SAN CARLOS,CA,94070,2650000,3,2.0,SAN CARLOS,2070,7975,1955,65,1280,,Sold,,,http://www.redfin.com/CA/San-Carlos/58-Chestnut-St-94070/home/1694222,MLSListings,ML81845152,N,Y,37.5109257,-122.2697088
PAST SALE,June-7-2021,Single Family Residential,736 Dartmouth Ave,SAN CARLOS,CA,94070,2420000,4,2.0,SAN CARLOS,1970,7250,1948,83,1228,,Sold,,,http://www.redfin.com/CA/San-Carlos/736-Dartmouth-Ave-94070/home/1649014,MLSListings,ML81840265,Y,Y,37.508255,-122.2850823
PAST SALE,June-16-2021,Single Family Residential,2032 Brittan Ave,SAN CARLOS,CA,94070,2005000,3,2.0,SAN CARLOS,1530,5000,1952,74,1310,,Sold,,,http://www.redfin.com/CA/San-Carlos/2032-Brittan-Ave-94070/home/1201608,MLSListings,ML81843774,N,Y,37.4942069,-122.2617332
PAST SALE,March-19-2021,Single Family Residential,2133 Brittan Ave,SAN CARLOS,CA,94070,2908000,4,2.5,SAN CARLOS,2401,6250,1941,163,1211,,Sold,,,http://www.redfin.com/CA/San-Carlos/2133-Brittan-Ave-94070/home/1541224,MLSListings,ML81829510,N,Y,37.492669,-122.2629739
PAST SALE,April-16-2021,Single Family Residential,1175 Walnut St,SAN CARLOS,CA,94070,2225000,3,2.0,SAN CARLOS,1450,4920,1965,135,1534,,Sold,,,http://www.redfin.com/CA/San-Carlos/1175-Walnut-St-94070/home/1268032,MLSListings,ML81834885,Y,Y,37.4987845,-122.2529831
PAST SALE,March-12-2021,Single Family Residential,1368 Elm St,SAN CARLOS,CA,94070,1668000,2,1.5,SAN CARLOS,1300,3932,1947,170,1283,,Sold,,,http://www.redfin.com/CA/San-Carlos/1368-Elm-St-94070/home/1999245,MLSListings,ML81826586,N,Y,37.4960903,-122.2521173
PAST SALE,April-30-2021,Single Family Residential,1749 Elizabeth St,SAN CARLOS,CA,94070,3800000,3,2.5,SAN CARLOS,2926,9044,2006,121,1299,,Sold,,,http://www.redfin.com/CA/San-Carlos/1749-Elizabeth-St-94070/home/2016932,MLSListings,ML81821887,N,Y,37.5003531,-122.2639044
PAST SALE,June-23-2021,Single Family Residential,1453 Walnut St,SAN CARLOS,CA,94070,2200000,4,2.0,SAN CARLOS,2030,4400,1946,67,1084,,Sold,,,http://www.redfin.com/CA/San-Carlos/1453-Walnut-St-94070/home/2054294,MLSListings,ML81844677,N,Y,37.4960744,-122.2495913
PAST SALE,May-27-2021,Single Family Residential,1319 Geneva Ave,SAN CARLOS,CA,94070,2250000,2,1.0,SAN CARLOS,1326,4040,1940,94,1697,,Sold,,,http://www.redfin.com/CA/San-Carlos/1319-Geneva-Ave-94070/home/2055219,MLSListings,ML81841355,Y,Y,37.4957154,-122.2548205
PAST SALE,May-6-2021,Single Family Residential,1533 Walnut St,SAN CARLOS,CA,94070,1705000,3,2.0,SAN CARLOS,1420,4400,1954,115,1201,,Sold,,,http://www.redfin.com/CA/San-Carlos/1533-Walnut-St-94070/home/2055225,MLSListings,ML81835906,N,Y,37.4952969,-122.248705
PAST SALE,June-25-2021,Single Family Residential,1567 Greenwood Ave,SAN CARLOS,CA,94070,2405000,3,2.0,SAN CARLOS,1390,4800,1940,65,1730,,Sold,,,http://www.redfin.com/CA/San-Carlos/1567-Greenwood-Ave-94070/home/1080878,MLSListings,ML81845805,Y,Y,37.496791,-122.2552193
PAST SALE,March-17-2021,Single Family Residential,27 Willow Glen Way,SAN CARLOS,CA,94070,2100000,4,4.5,SAN CARLOS,2797,3825,2007,165,751,,Sold,,,http://www.redfin.com/CA/San-Carlos/27-Willow-Glen-Way-94070/home/780994,MLSListings,ML81821457,N,Y,37.4991918,-122.2782598
PAST SALE,May-19-2021,Single Family Residential,230 Exeter Ave,SAN CARLOS,CA,94070,2995000,4,3.0,SAN CARLOS,3211,7400,1986,102,933,,Sold,,,http://www.redfin.com/CA/San-Carlos/230-Exeter-Ave-94070/home/1153158,MLSListings,ML81838765,N,Y,37.5010149,-122.2812945
PAST SALE,July-8-2021,Single Family Residential,225 Lynton Ave,SAN CARLOS,CA,94070,1775000,3,2.5,SAN CARLOS,2120,7205,1968,52,837,,Sold,,,http://www.redfin.com/CA/San-Carlos/225-Lynton-Ave-94070/home/1424014,MLSListings,ML81845318,Y,Y,37.4968984,-122.2882277
PAST SALE,August-3-2021,Single Family Residential,240 Chesham Ave,SAN CARLOS,CA,94070,2422000,3,4.0,SAN CARLOS,2360,10800,1933,26,1026,,Sold,,,http://www.redfin.com/CA/San-Carlos/240-Chesham-Ave-94070/home/1958539,MLSListings,ML81850400,N,Y,37.4964702,-122.2810509
PAST SALE,August-13-2021,Single Family Residential,3231 Melendy Dr,SAN CARLOS,CA,94070,3000000,4,2.5,SAN CARLOS,2300,7930,1968,16,1304,,Sold,,,http://www.redfin.com/CA/San-Carlos/3231-Melendy-Dr-94070/home/1881629,MLSListings,ML81848156,N,Y,37.4885777,-122.2810509
PAST SALE,March-11-2021,Single Family Residential,73 Ensenada Rd,SAN CARLOS,CA,94070,2250000,4,2.5,SAN CARLOS,2190,8880,1951,171,1027,,Sold,,,http://www.redfin.com/CA/San-Carlos/73-Ensenada-Rd-94070/home/768853,MLSListings,ML81825134,N,Y,37.509239,-122.2730318
PAST SALE,June-24-2021,Single Family Residential,203 Clifton Ave,SAN CARLOS,CA,94070,2275000,5,3.0,SAN CARLOS,2182,6800,1954,66,1043,,Sold,,,http://www.redfin.com/CA/San-Carlos/203-Clifton-Ave-94070/home/1709115,MLSListings,ML81841324,Y,Y,37.5029115,-122.2764876
PAST SALE,March-16-2021,Single Family Residential,2921 Brittan Ave,SAN CARLOS,CA,94070,2350000,4,3.0,SAN CARLOS,2070,10875,1961,166,1135,,Sold,,,http://www.redfin.com/CA/San-Carlos/2921-Brittan-Ave-94070/home/1766672,MLSListings,ML81826885,N,Y,37.486931,-122.2747376
PAST SALE,June-11-2021,Single Family Residential,39 Vine St,SAN CARLOS,CA,94070,2601000,5,2.0,SAN CARLOS,1880,6222,1953,79,1384,,Sold,,,http://www.redfin.com/CA/San-Carlos/39-Vine-St-94070/home/2055169,MLSListings,ML81841676,Y,Y,37.5100517,-122.2713481
PAST SALE,June-21-2021,Single Family Residential,1551 Walnut St,SAN CARLOS,CA,94070,1800000,3,2.0,SAN CARLOS,1760,4400,1953,69,1023,,Sold,,,http://www.redfin.com/CA/San-Carlos/1551-Walnut-St-94070/home/1080960,MLSListings,ML81842567,Y,Y,37.4952117,-122.2486164
PAST SALE,,Single Family Residential,184 Cedar St,San Carlos,CA,94070,2801000,3,2.0,,1970,6090,1947,,1422,,,,,http://www.redfin.com/CA/San-Carlos/184-Cedar-St-94070/home/1741321,,,Y,Y,37.5081779,-122.2693986
PAST SALE,March-19-2021,Single Family Residential,185 Fir St,SAN CARLOS,CA,94070,2335000,3,2.0,SAN CARLOS,1738,5916,1947,163,1343,,Sold,,,http://www.redfin.com/CA/San-Carlos/185-Fir-St-94070/home/1666696,MLSListings,ML81829323,N,Y,37.5089001,-122.2683796
PAST SALE,July-23-2021,Single Family Residential,749 Orange Ave,SAN CARLOS,CA,94070,2925000,4,3.0,SAN CARLOS,2922,5950,1940,37,1001,,Sold,,,http://www.redfin.com/CA/San-Carlos/749-Orange-Ave-94070/home/2046416,MLSListings,ML81847408,N,Y,37.5006129,-122.2629295
PAST SALE,March-9-2021,Single Family Residential,1060 Northwood Dr,SAN CARLOS,CA,94070,1600000,4,3.0,SAN CARLOS,1350,4895,1983,173,1185,,Sold,,,http://www.redfin.com/CA/San-Carlos/1060-Northwood-Dr-94070/home/1676858,MLSListings,ML81826632,N,Y,37.5121358,-122.2643918
PAST SALE,July-29-2021,Single Family Residential,95 Hilltop Dr,SAN CARLOS,CA,94070,1925000,3,2.0,SAN CARLOS,1510,4400,1947,31,1275,,Sold,,,http://www.redfin.com/CA/San-Carlos/95-Hilltop-Dr-94070/home/1856825,MLSListings,ML81849831,Y,Y,37.4864065,-122.2593404
PAST SALE,April-16-2021,Single Family Residential,159 F St,REDWOOD CITY,CA,94063,1425000,3,1.0,REDWOOD CITY,970,5000,1950,135,1469,,Sold,,,http://www.redfin.com/CA/Redwood-City/159-F-St-94063/home/804427,MLSListings,ML81834870,N,Y,37.4946535,-122.2425892
PAST SALE,March-11-2021,Single Family Residential,209 F St,REDWOOD CITY,CA,94063,1650000,3,2.0,REDWOOD CITY,1180,5000,1950,171,1398,,Sold,,,http://www.redfin.com/CA/Redwood-City/209-F-St-94063/home/2051395,MLSListings,ML81827530,N,Y,37.4950527,-122.2420463
PAST SALE,August-12-2021,Single Family Residential,1311 Eaton Ave,SAN CARLOS,CA,94070,2888000,4,3.5,SAN CARLOS,2450,6100,1985,17,1179,,Sold,,,http://www.redfin.com/CA/San-Carlos/1311-Eaton-Ave-94070/home/1699697,MLSListings,ML81858153,N,Y,37.4923419,-122.2460017
PAST SALE,July-16-2021,Single Family Residential,350 G St,REDWOOD CITY,CA,94063,1573500,3,1.0,REDWOOD CITY,1035,5610,1951,44,1520,,Sold,,,http://www.redfin.com/CA/Redwood-City/350-G-St-94063/home/1856873,MLSListings,ML81846943,N,Y,37.4975132,-122.2408165
PAST SALE,August-5-2021,Single Family Residential,299 G St,REDWOOD CITY,CA,94063,1870000,3,2.0,REDWOOD CITY,1552,5800,1950,24,1205,,Sold,,,http://www.redfin.com/CA/Redwood-City/299-G-St-94063/home/1608589,MLSListings,ML81850579,N,Y,37.4968775,-122.2424119
PAST SALE,April-5-2021,Single Family Residential,1506 Gover Ln,SAN CARLOS,CA,94070,2300000,5,3.0,SAN CARLOS,2300,5700,1952,146,1000,,Sold,,,http://www.redfin.com/CA/San-Carlos/1506-Gover-Ln-94070/home/1534239,MLSListings,ML81831459,N,Y,37.4930444,-122.2518699
PAST SALE,August-11-2021,Single Family Residential,1521 Cedar St,SAN CARLOS,CA,94070,2950000,4,3.5,SAN CARLOS,2510,4640,1946,18,1175,,Sold,,,http://www.redfin.com/CA/San-Carlos/1521-Cedar-St-94070/home/1036419,MLSListings,ML81849844,N,Y,37.4927162,-122.2534911
PAST SALE,May-28-2021,Single Family Residential,655 Bayport Ave,SAN CARLOS,CA,94070,2468000,5,3.5,SAN CARLOS,2698,6500,1936,93,915,,Sold,,,http://www.redfin.com/CA/San-Carlos/655-Bayport-Ave-94070/home/771877,MLSListings,ML81835883,N,Y,37.5084316,-122.2570361
PAST SALE,June-21-2021,Single Family Residential,940 Holly St,SAN CARLOS,CA,94070,1392000,2,1.0,SAN CARLOS,905,5900,1940,69,1538,,Sold,,,http://www.redfin.com/CA/San-Carlos/940-Holly-St-94070/home/773179,MLSListings,ML81843414,N,Y,37.5114013,-122.2589727
PAST SALE,May-28-2021,Single Family Residential,946 Montgomery St,SAN CARLOS,CA,94070,1300000,2,1.0,SAN CARLOS,1180,5000,1940,93,1102,,Sold,,,http://www.redfin.com/CA/San-Carlos/946-Montgomery-St-94070/home/1991547,MLSListings,ML81843078,N,Y,37.5093584,-122.2563271
PAST SALE,August-26-2021,Single Family Residential,47 Bayport Ct,SAN CARLOS,CA,94070,1921000,3,2.0,SAN CARLOS,1420,5356,1987,3,1353,,Sold,,,http://www.redfin.com/CA/San-Carlos/47-Bayport-Ct-94070/home/1835849,MLSListings,ML81855009,Y,Y,37.5104638,-122.2580996
PAST SALE,,Single Family Residential,1058 Laurel St,San Carlos,CA,94070,1650000,2,1.0,,1000,6500,1940,,1650,,,,,http://www.redfin.com/CA/San-Carlos/1058-Laurel-St-94070/home/802504,,,N,Y,37.5003219,-122.2540671
PAST SALE,June-9-2021,Single Family Residential,1425 Arroyo Ave,SAN CARLOS,CA,94070,3650000,5,3.5,SAN CARLOS,2919,4500,2021,81,1250,,Sold,,,http://www.redfin.com/CA/San-Carlos/1425-Arroyo-Ave-94070/home/1220752,MLSListings,ML81836541,N,Y,37.5014058,-122.2583655
PAST SALE,June-15-2021,Single Family Residential,103 Dale Ave,SAN CARLOS,CA,94070,3400000,4,2.5,SAN CARLOS,2620,5500,1998,75,1298,,Sold,,,http://www.redfin.com/CA/San-Carlos/103-Dale-Ave-94070/home/784716,MLSListings,ML81843726,N,Y,37.5008043,-122.2717469
PAST SALE,June-11-2021,Single Family Residential,2164 Carmelita Dr,SAN CARLOS,CA,94070,3100000,4,3.0,SAN CARLOS,2450,8000,1937,79,1265,,Sold,,,http://www.redfin.com/CA/San-Carlos/2164-Carmelita-Dr-94070/home/1153168,MLSListings,ML81842202,N,Y,37.5015688,-122.2731647
PAST SALE,April-6-2021,Single Family Residential,106 Madera Ave,SAN CARLOS,CA,94070,2300000,4,3.0,SAN CARLOS,2830,5824,1976,145,813,,Sold,,,http://www.redfin.com/CA/San-Carlos/106-Madera-Ave-94070/home/1350016,MLSListings,ML81837599,N,Y,37.5001345,-122.2727444
PAST SALE,May-5-2021,Single Family Residential,43 Coronado Ave,SAN CARLOS,CA,94070,1800000,4,3.0,SAN CARLOS,2220,13915,1962,116,811,,Sold,,,http://www.redfin.com/CA/San-Carlos/43-Coronado-Ave-94070/home/1844621,MLSListings,ML81842340,N,Y,37.4985307,-122.2740508
PAST SALE,July-26-2021,Single Family Residential,1120 Hudson Ct,SAN CARLOS,CA,94070,3075000,4,2.5,SAN CARLOS,2600,10000,1964,34,1183,,Sold,,,http://www.redfin.com/CA/San-Carlos/1120-Hudson-Ct-94070/home/1915472,MLSListings,ML81848753,N,Y,37.4820629,-122.2829291
PAST SALE,,Single Family Residential,43 Willow Glen Way,San Carlos,CA,94070,2050000,3,2.0,,1900,10900,1933,,1079,,,,,http://www.redfin.com/CA/San-Carlos/43-Willow-Glen-Way-94070/home/781011,,,N,Y,37.4987439,-122.2787471
PAST SALE,April-20-2021,Single Family Residential,107 Winding Way,SAN CARLOS,CA,94070,2400000,3,2.5,SAN CARLOS,2550,5786,2000,131,941,,Sold,,,http://www.redfin.com/CA/San-Carlos/107-Winding-Way-94070/home/1314868,MLSListings,ML81839904,N,Y,37.4953867,-122.2799433
PAST SALE,July-19-2021,Single Family Residential,38 Winding Way,SAN CARLOS,CA,94070,2960000,4,3.5,SAN CARLOS,2387,7100,2018,41,1240,,Sold,,,http://www.redfin.com/CA/San-Carlos/38-Winding-Way-94070/home/144111041,MLSListings,ML81849765,N,Y,37.4951664,-122.2793268
PAST SALE,August-2-2021,Single Family Residential,160 Plymouth Ave,SAN CARLOS,CA,94070,2750000,3,2.0,SAN CARLOS,1440,8190,1941,27,1910,,Sold,,,http://www.redfin.com/CA/San-Carlos/160-Plymouth-Ave-94070/home/782805,MLSListings,ML81852490,N,Y,37.4993929,-122.2802977
PAST SALE,May-25-2021,Single Family Residential,1001 Crestview Dr,SAN CARLOS,CA,94070,2225000,3,2.0,SAN CARLOS,2030,6969,1975,96,1096,,Sold,,,http://www.redfin.com/CA/San-Carlos/1001-Crestview-Dr-94070/home/1231051,MLSListings,ML81839393,Y,Y,37.4844698,-122.2839949
PAST SALE,March-3-2021,Single Family Residential,1130 Royal Ln,SAN CARLOS,CA,94070,2100000,3,2.5,SAN CARLOS,2540,2496,1983,179,827,506,Sold,,,http://www.redfin.com/CA/San-Carlos/1130-Royal-Ln-94070/home/1275821,MLSListings,ML81818995,N,Y,37.4809564,-122.2843292
PAST SALE,,Single Family Residential,480 Erlin Dr,San Carlos,CA,94070,2484000,3,2.0,,2780,16490,1970,,894,,,,,http://www.redfin.com/CA/San-Carlos/480-Erlin-Dr-94070/home/767889,,,N,Y,37.510206,-122.273785
PAST SALE,August-24-2021,Single Family Residential,101 Hillcrest Rd,SAN CARLOS,CA,94070,2100000,3,2.0,SAN CARLOS,1480,12615,1954,5,1419,,Sold,,,http://www.redfin.com/CA/San-Carlos/101-Hillcrest-Rd-94070/home/2059031,MLSListings,ML81851497,N,Y,37.5084715,-122.2717469
PAST SALE,July-9-2021,Single Family Residential,11 Del Rey Ct,SAN CARLOS,CA,94070,2500000,3,2.0,SAN CARLOS,1580,5306,1959,51,1582,,Sold,,,http://www.redfin.com/CA/San-Carlos/11-Del-Rey-Ct-94070/home/2037222,MLSListings,ML81849561,Y,Y,37.505841,-122.2722786
PAST SALE,July-29-2021,Single Family Residential,1723 Fernwood Way,BELMONT,CA,94002,2455000,4,3.0,BELMONT,1703,7600,1955,31,1442,,Sold,,,http://www.redfin.com/CA/Belmont/1723-Fernwood-Way-94002/home/766997,MLSListings,ML81853513,N,Y,37.5104307,-122.2879397
PAST SALE,August-16-2021,Single Family Residential,1527 Altura Way,BELMONT,CA,94002,2450000,3,2.0,BELMONT,1290,8400,1955,13,1899,,Sold,,,http://www.redfin.com/CA/Belmont/1527-Altura-Way-94002/home/769678,MLSListings,ML81852824,N,Y,37.5105579,-122.2820698
PAST SALE,August-6-2021,Single Family Residential,362 Beverly Dr,SAN CARLOS,CA,94070,2350000,3,2.0,SAN CARLOS,1700,9000,1957,23,1382,,Sold,,,http://www.redfin.com/CA/San-Carlos/362-Beverly-Dr-94070/home/782246,MLSListings,ML81851773,N,Y,37.5010296,-122.2827787
PAST SALE,,Single Family Residential,496 Wellington Dr,San Carlos,CA,94070,1550000,3,2.0,,1500,4888,1960,,1033,,,,,http://www.redfin.com/CA/San-Carlos/496-Wellington-Dr-94070/home/1323107,,,N,Y,37.5084849,-122.2806521
PAST SALE,June-29-2021,Single Family Residential,425 Shelford,San Carlos,CA,94070,1650000,5,5.5,San Carlos,3700,18731,1965,61,446,,Sold,,,http://www.redfin.com/CA/San-Carlos/425-Shelford-Ave-94070/home/1533867,"bridgeMLS, Bay East AOR, or Contra Costa AOR",40942435,N,Y,37.5113171,-122.2752914
PAST SALE,June-3-2021,Single Family Residential,1536 Harbor Blvd,BELMONT,CA,94002,2310000,4,2.0,BELMONT,2360,34850,1953,87,979,,Sold,,,http://www.redfin.com/CA/Belmont/1536-Harbor-Blvd-94002/home/1305995,MLSListings,ML81841634,N,Y,37.5132131,-122.2747154
PAST SALE,,Single Family Residential,1512 Chula Vista Dr,Belmont,CA,94002,1500000,3,2.0,,1740,6390,1954,,862,,,,,http://www.redfin.com/CA/Belmont/1512-Chula-Vista-Dr-94002/home/769569,,,N,Y,37.511475,-122.2854367
PAST SALE,April-9-2021,Single Family Residential,2806 San Carlos Ave,SAN CARLOS,CA,94070,1870000,3,2.0,SAN CARLOS,1210,6500,1953,142,1545,,Sold,,,http://www.redfin.com/CA/San-Carlos/2806-San-Carlos-Ave-94070/home/783985,MLSListings,ML81831534,N,Y,37.507029,-122.2857911
PAST SALE,April-13-2021,Single Family Residential,1516 Chula Vista Dr,Belmont,CA,94002,1500000,3,2.0,Belmont,1220,6674,1954,138,1230,,Sold,,,http://www.redfin.com/CA/Belmont/1516-Chula-Vista-Dr-94002/home/1201132,San Francisco MLS,421529180,N,Y,37.51137,-122.2856582
PAST SALE,June-11-2021,Single Family Residential,58 Club Dr,SAN CARLOS,CA,94070,3000000,5,3.5,SAN CARLOS,3251,7200,1975,79,923,,Sold,,,http://www.redfin.com/CA/San-Carlos/58-Club-Dr-94070/home/2009083,MLSListings,ML81845094,N,Y,37.5036863,-122.2853481
PAST SALE,,Single Family Residential,332 Devonshire Blvd,San Carlos,CA,94070,4500000,5,4.5,,4200,28780,2004,,1071,,,,,http://www.redfin.com/CA/San-Carlos/332-Devonshire-Blvd-94070/home/787670,,,N,Y,37.4963304,-122.2853703
PAST SALE,June-10-2021,Single Family Residential,116 Normandy Ct,SAN CARLOS,CA,94070,3850000,4,3.0,SAN CARLOS,2920,10000,1980,80,1318,,Sold,,,http://www.redfin.com/CA/San-Carlos/116-Normandy-Ct-94070/home/1886314,MLSListings,ML81835893,N,Y,37.4894959,-122.2880948
PAST SALE,June-10-2021,Single Family Residential,717 Best Ct,SAN CARLOS,CA,94070,3898000,5,4.5,SAN CARLOS,4210,18731,1989,80,926,,Sold,,,http://www.redfin.com/CA/San-Carlos/717-Best-Ct-94070/home/1983748,MLSListings,ML81841106,N,Y,37.4884581,-122.2913729
PAST SALE,,Single Family Residential,16 Elston Ct,San Carlos,CA,94070,3400000,5,4.0,,3585,7524,1990,,948,,,,,http://www.redfin.com/CA/San-Carlos/16-Elston-Ct-94070/home/798681,,,N,Y,37.4973854,-122.2760889
PAST SALE,July-19-2021,Single Family Residential,830 Buckland Ave,SAN CARLOS,CA,94070,2500000,4,3.0,SAN CARLOS,2550,7200,1955,41,980,,Sold,,,http://www.redfin.com/CA/San-Carlos/830-Buckland-Ave-94070/home/1370075,MLSListings,ML81849593,N,Y,37.5117984,-122.2781269
PAST SALE,August-20-2021,Single Family Residential,875 Buckland Ave,SAN CARLOS,CA,94070,2391400,4,3.0,SAN CARLOS,1890,7200,1955,9,1265,,Sold,,,http://www.redfin.com/CA/San-Carlos/875-Buckland-Ave-94070/home/1059010,MLSListings,ML81852763,N,Y,37.5113748,-122.2770636
PAST SALE,June-10-2021,Single Family Residential,2462 Hallmark Dr,BELMONT,CA,94002,3705000,4,3.5,BELMONT,3060,16380,1976,80,1211,,Sold,,,http://www.redfin.com/CA/Belmont/2462-Hallmark-Dr-94002/home/1624199,MLSListings,ML81845052,N,Y,37.4991711,-122.3027127
PAST SALE,June-21-2021,Single Family Residential,2458 Hallmark Dr,Belmont,CA,94002-2908,2638000,3,2.0,Belmont,2060,7326,1976,69,1281,,Sold,,,http://www.redfin.com/CA/Belmont/2458-Hallmark-Dr-94002/home/1648972,"bridgeMLS, Bay East AOR, or Contra Costa AOR",40950910,N,Y,37.4990652,-122.3024469
PAST SALE,June-1-2021,Single Family Residential,2204 San Carlos Ave,SAN CARLOS,CA,94070,2100000,3,3.0,SAN CARLOS,1610,6500,1947,89,1304,,Sold,,,http://www.redfin.com/CA/San-Carlos/2204-San-Carlos-Ave-94070/home/1378412,MLSListings,ML81826414,N,Y,37.5024356,-122.2765762
PAST SALE,July-2-2021,Single Family Residential,26 Dover Ct,SAN CARLOS,CA,94070,2000000,3,2.5,SAN CARLOS,1820,9800,1933,58,1099,,Sold,,,http://www.redfin.com/CA/San-Carlos/26-Dover-Ct-94070/home/1741554,MLSListings,ML81846122,N,Y,37.4956812,-122.2827787
PAST SALE,June-1-2021,Single Family Residential,1357 Woodland Ave,SAN CARLOS,CA,94070,2275000,3,2.0,SAN CARLOS,1495,4880,1945,89,1522,,Sold,,,http://www.redfin.com/CA/San-Carlos/1357-Woodland-Ave-94070/home/801894,MLSListings,ML81840769,Y,Y,37.4956207,-122.2535354
PAST SALE,May-21-2021,Single Family Residential,1801 Greenwood Ave,SAN CARLOS,CA,94070,1837000,2,1.0,SAN CARLOS,830,5160,1938,100,2213,,Sold,,,http://www.redfin.com/CA/San-Carlos/1801-Greenwood-Ave-94070/home/1461959,MLSListings,ML81837896,Y,Y,37.4960086,-122.2566816
PAST SALE,July-2-2021,Single Family Residential,1731 Brittan Ave,San Carlos,CA,94070,2888000,4,3.0,San Carlos,2262,4880,1947,58,1277,,Sold,,,http://www.redfin.com/CA/San-Carlos/1731-Brittan-Ave-94070/home/1616544,"bridgeMLS, Bay East AOR, or Contra Costa AOR",40957079,N,Y,37.4964669,-122.2578781
PAST SALE,March-8-2021,Single Family Residential,1505 Cedar St,SAN CARLOS,CA,94070,1930000,3,2.0,SAN CARLOS,1720,4640,1947,174,1122,,Sold,,,http://www.redfin.com/CA/San-Carlos/1505-Cedar-St-94070/home/1952454,MLSListings,ML81827534,N,Y,37.4928731,-122.2537126
PAST SALE,,Single Family Residential,1445 Greenwood Ave,San Carlos,CA,94070,2500000,3,2.0,,1813,5400,1946,,1379,,,,,http://www.redfin.com/CA/San-Carlos/1445-Greenwood-Ave-94070/home/2014675,,,N,Y,37.4972439,-122.2539785
PAST SALE,July-14-2021,Single Family Residential,1360 Oakhurst Ave,SAN CARLOS,CA,94070,2200000,2,2.0,SAN CARLOS,1514,6500,1948,46,1453,,Sold,,,http://www.redfin.com/CA/San-Carlos/1360-Oakhurst-Ave-94070/home/1801934,MLSListings,ML81849355,Y,Y,37.4923196,-122.2571247
PAST SALE,March-12-2021,Single Family Residential,2904 Brittan Ave,SAN CARLOS,CA,94070,2275000,4,2.5,SAN CARLOS,2120,9394,1960,170,1073,,Sold,,,http://www.redfin.com/CA/San-Carlos/2904-Brittan-Ave-94070/home/787961,MLSListings,ML81828560,N,Y,37.487741,-122.274228
PAST SALE,May-25-2021,Single Family Residential,43 Loma Rd,REDWOOD CITY,CA,94062,2650000,2,2.0,REDWOOD CITY,1790,34400,1957,96,1480,,Sold,,,http://www.redfin.com/CA/Palomar-Park/43-Loma-Rd-94062/home/1523322,MLSListings,ML81846728,N,Y,37.4806454,-122.2736964
PAST SALE,April-9-2021,Single Family Residential,3153 La Mesa Dr,SAN CARLOS,CA,94070,3150000,4,2.0,SAN CARLOS,1900,7800,1968,142,1658,,Sold,,,http://www.redfin.com/CA/San-Carlos/3153-La-Mesa-Dr-94070/home/794502,MLSListings,ML81835424,Y,Y,37.4815271,-122.2765098
PAST SALE,,Single Family Residential,1328 Greenbrier Rd,San Carlos,CA,94070,2460000,4,3.0,,2730,8757,1968,,901,,,,,http://www.redfin.com/CA/San-Carlos/1328-Greenbrier-Rd-94070/home/1026115,,,N,Y,37.4824206,-122.278064
PAST SALE,April-7-2021,Single Family Residential,1190 Palomar Dr,REDWOOD CITY,CA,94062,3577500,3,3.0,REDWOOD CITY,4024,30209,1955,144,889,,Sold,,,http://www.redfin.com/CA/Redwood-City/1190-Palomar-Dr-94062/home/1694568,MLSListings,ML81832270,N,Y,37.479062,-122.2784591
PAST SALE,August-19-2021,Single Family Residential,215 Loma Rd,SAN CARLOS,CA,94070,2500000,3,2.0,SAN CARLOS,1760,6800,1968,10,1420,,Sold,,,http://www.redfin.com/CA/San-Carlos/215-Loma-Rd-94070/home/795229,MLSListings,ML81853683,N,Y,37.4833083,-122.2760667
PAST SALE,June-28-2021,Single Family Residential,909 Heather Dr,SAN CARLOS,CA,94070,2600000,3,2.0,SAN CARLOS,1560,10620,1959,62,1667,,Sold,,,http://www.redfin.com/CA/San-Carlos/909-Heather-Dr-94070/home/787987,MLSListings,ML81844491,Y,Y,37.4939764,-122.2710158
PAST SALE,July-15-2021,Single Family Residential,1061 Porto Marino Dr,SAN CARLOS,CA,94070,2653000,4,2.0,SAN CARLOS,2000,12240,1960,45,1327,,Sold,,,http://www.redfin.com/CA/San-Carlos/1061-Porto-Marino-Dr-94070/home/1080675,MLSListings,ML81846031,N,Y,37.4890113,-122.2742945
PAST SALE,July-8-2021,Single Family Residential,201 Glasgow Ln,SAN CARLOS,CA,94070,4080000,5,3.0,SAN CARLOS,2928,10895,1991,52,1393,,Sold,,,http://www.redfin.com/CA/San-Carlos/201-Glasgow-Ln-94070/home/2021814,MLSListings,ML81848188,N,Y,37.4964159,-122.2733198
PAST SALE,August-16-2021,Single Family Residential,113 Glasgow Ln,SAN CARLOS,CA,94070,3416800,4,2.5,SAN CARLOS,2290,7002,1990,13,1492,,Sold,,,http://www.redfin.com/CA/San-Carlos/113-Glasgow-Ln-94070/home/1717406,MLSListings,ML81855010,N,Y,37.4942937,-122.2723672
PAST SALE,May-19-2021,Single Family Residential,260 Kelton Ave,SAN CARLOS,CA,94070,2850000,4,2.5,SAN CARLOS,2598,4400,1930,102,1097,,Sold,,,http://www.redfin.com/CA/San-Carlos/260-Kelton-Ave-94070/home/1915591,MLSListings,ML81840211,N,Y,37.4873444,-122.2544216
PAST SALE,May-18-2021,Single Family Residential,2016 Birch Ave,SAN CARLOS,CA,94070,3450000,4,3.5,SAN CARLOS,2592,5000,2021,103,1331,,Sold,,,http://www.redfin.com/CA/San-Carlos/2016-Birch-Ave-94070/home/789622,MLSListings,ML81833225,N,Y,37.4954061,-122.262708
PAST SALE,May-25-2021,Single Family Residential,940 Woodland Ave,SAN CARLOS,CA,94070,3905000,4,3.0,SAN CARLOS,2830,11820,1932,96,1380,,Sold,,,http://www.redfin.com/CA/San-Carlos/940-Woodland-Ave-94070/home/804038,MLSListings,ML81840780,N,Y,37.4987821,-122.2591188
PAST SALE,,Single Family Residential,1431 Oakhurst Ave,San Carlos,CA,94070,1855000,3,2.0,,1550,4400,1960,,1197,,,,,http://www.redfin.com/CA/San-Carlos/1431-Oakhurst-Ave-94070/home/1201757,,,N,Y,37.4910007,-122.2559283
PAST SALE,May-17-2021,Single Family Residential,2063 Belle Ave,SAN CARLOS,CA,94070,1625000,2,1.0,SAN CARLOS,1030,5500,1946,104,1578,,Sold,,,http://www.redfin.com/CA/San-Carlos/2063-Belle-Ave-94070/home/1892038,MLSListings,ML81844348,N,Y,37.4956035,-122.2643918
PAST SALE,May-20-2021,Single Family Residential,1714 Elizabeth St,SAN CARLOS,CA,94070,2850000,3,2.0,SAN CARLOS,1950,6240,1957,101,1462,,Sold,,,http://www.redfin.com/CA/San-Carlos/1714-Elizabeth-St-94070/home/1919858,MLSListings,ML81839113,N,Y,37.5014576,-122.2635942
PAST SALE,,Single Family Residential,207 Manor Dr,San Carlos,CA,94070,2150000,3,2.0,,1840,13300,1947,,1168,,,,,http://www.redfin.com/CA/San-Carlos/207-Manor-Dr-94070/home/2005622,,,N,Y,37.4999866,-122.2754368
PAST SALE,,Single Family Residential,1938 Birch Ave,San Carlos,CA,94070,2250000,3,2.0,,1820,5000,1946,,1236,,,,,http://www.redfin.com/CA/San-Carlos/1938-Birch-Ave-94070/home/1133799,,,N,Y,37.4964639,-122.2612014
PAST SALE,,Single Family Residential,153 Somerset St,Redwood City,CA,94062,1850000,3,2.0,,1460,5625,1953,,1267,,,,,http://www.redfin.com/CA/Redwood-City/153-Somerset-St-94062/home/1434214,,,N,Y,37.4874632,-122.2477079
PAST SALE,March-19-2021,Single Family Residential,8 Dover Ct,SAN CARLOS,CA,94070,2875000,4,3.0,SAN CARLOS,2655,6534,1939,163,1083,,Sold,,,http://www.redfin.com/CA/San-Carlos/8-Dover-Ct-94070/home/780587,MLSListings,ML81830371,N,Y,37.4962445,-122.2821584
PAST SALE,June-16-2021,Single Family Residential,116 Chesham Ave,SAN CARLOS,CA,94070,1650000,3,2.0,SAN CARLOS,1580,7850,1960,74,1044,,Sold,,,http://www.redfin.com/CA/San-Carlos/116-Chesham-Ave-94070/home/780922,MLSListings,ML81841892,Y,Y,37.4964381,-122.2802977
PAST SALE,June-21-2021,Single Family Residential,28 Bayview Dr,SAN CARLOS,CA,94070,2630000,3,2.0,SAN CARLOS,1977,7344,1976,69,1330,,Sold,,,http://www.redfin.com/CA/San-Carlos/28-Bayview-Dr-94070/home/1823162,MLSListings,ML81844068,N,Y,37.5048143,-122.2840413
PAST SALE,June-24-2021,Single Family Residential,3363 Melendy Dr,SAN CARLOS,CA,94070,3200000,4,3.5,SAN CARLOS,3400,7480,1986,66,941,,Sold,,,http://www.redfin.com/CA/San-Carlos/3363-Melendy-Dr-94070/home/1876099,MLSListings,ML81832989,N,Y,37.4880356,-122.2855253
PAST SALE,July-2-2021,Single Family Residential,626 Wellington Dr,SAN CARLOS,CA,94070,3730000,5,4.5,SAN CARLOS,3300,8000,2021,58,1130,,Sold,,,http://www.redfin.com/CA/San-Carlos/626-Wellington-Dr-94070/home/1886275,MLSListings,ML81847142,N,Y,37.5086723,-122.2827344
PAST SALE,,Single Family Residential,31 Kenton Ave,San Carlos,CA,94070,1900000,3,2.0,,1500,5550,1947,,1267,,,,,http://www.redfin.com/CA/San-Carlos/31-Kenton-Ave-94070/home/2024627,,,N,Y,37.5066732,-122.2808294
PAST SALE,July-6-2021,Single Family Residential,11 Chilton Ave,SAN CARLOS,CA,94070,1964000,3,2.0,SAN CARLOS,1760,246636720,1956,54,1116,,Sold,,,http://www.redfin.com/CA/San-Carlos/11-Chilton-Ave-94070/home/1523155,MLSListings,ML81847210,N,Y,37.5017388,-122.2838862
PAST SALE,August-6-2021,Single Family Residential,255 Club Dr,SAN CARLOS,CA,94070,4680255,4,3.0,SAN CARLOS,3230,38988,2006,23,1449,,Sold,,,http://www.redfin.com/CA/San-Carlos/255-Club-Dr-94070/home/2100322,MLSListings,ML81848551,N,Y,37.498451,-122.2884713
PAST SALE,August-10-2021,Single Family Residential,316 Devonshire Blvd,SAN CARLOS,CA,94070,2050000,2,2.0,SAN CARLOS,1250,35000,1950,19,1640,,Sold,,,http://www.redfin.com/CA/San-Carlos/316-Devonshire-Blvd-94070/home/1461797,MLSListings,ML81855154,N,Y,37.4965379,-122.2845064
PAST SALE,August-20-2021,Single Family Residential,1101 GREENBRIER RD. Rd,SAN CARLOS,CA,94070,3050000,5,3.5,SAN CARLOS,2973,10060,1985,9,1026,,Sold,,,http://www.redfin.com/CA/San-Carlos/1101-Greenbrier-Rd-94070/home/1886376,MLSListings,ML81852019,N,Y,37.4831825,-122.2819369
PAST SALE,August-25-2021,Single Family Residential,520 Club Dr,SAN CARLOS,CA,94070,3100000,3,3.5,SAN CARLOS,2680,12320,1979,4,1157,,Sold,,,http://www.redfin.com/CA/San-Carlos/520-Club-Dr-94070/home/2044392,MLSListings,ML81849425,N,Y,37.4976197,-122.295116
PAST SALE,August-27-2021,Single Family Residential,3280 Melendy Dr,SAN CARLOS,CA,94070,2550000,4,3.0,SAN CARLOS,2580,8400,1974,2,988,,Sold,,,http://www.redfin.com/CA/San-Carlos/3280-Melendy-Dr-94070/home/1574390,MLSListings,ML81852427,N,Y,37.4884014,-122.2821806
PAST SALE,August-27-2021,Single Family Residential,607 Dartmouth Ave,SAN CARLOS,CA,94070,2680000,3,3.0,SAN CARLOS,1780,8750,1954,2,1506,,Sold,,,http://www.redfin.com/CA/San-Carlos/607-Dartmouth-Ave-94070/home/781810,MLSListings,ML81855373,N,Y,37.5094083,-122.2827122
PAST SALE,March-26-2021,Single Family Residential,1610 Hull Dr,SAN CARLOS,CA,94070,1810000,2,1.5,SAN CARLOS,1590,6690,1948,156,1138,,Sold,,,http://www.redfin.com/CA/San-Carlos/1610-Hull-Dr-94070/home/770692,MLSListings,ML81830553,N,Y,37.5088373,-122.271038
PAST SALE,March-21-2021,Single Family Residential,1056 Riverton Dr,SAN CARLOS,CA,94070,2007000,3,2.0,SAN CARLOS,1620,5000,1948,161,1239,,Sold,,,http://www.redfin.com/CA/San-Carlos/1056-Riverton-Dr-94070/home/771011,MLSListings,ML81829031,N,Y,37.5116788,-122.2636828
PAST SALE,,Single Family Residential,1053 McCue Ave,San Carlos,CA,94070,1275000,2,1.0,,920,5600,1946,,1386,,,,,http://www.redfin.com/CA/San-Carlos/1053-McCue-Ave-94070/home/773611,,,N,Y,37.508365,-122.2593404
PAST SALE,June-1-2021,Single Family Residential,379 Elm St,SAN CARLOS,CA,94070,3050000,4,3.5,SAN CARLOS,3654,8050,1951,89,835,,Sold,,,http://www.redfin.com/CA/San-Carlos/379-Elm-St-94070/home/787649,MLSListings,ML81840350,N,Y,37.5078725,-122.265433
PAST SALE,March-10-2021,Single Family Residential,905 Rosewood Ave,SAN CARLOS,CA,94070,3600000,4,4.5,SAN CARLOS,3020,6000,2009,172,1192,,Sold,,,http://www.redfin.com/CA/San-Carlos/905-Rosewood-Ave-94070/home/1249135,MLSListings,ML81825245,N,Y,37.5011886,-122.2585871
PAST SALE,May-4-2021,Single Family Residential,60 Hartford Ave,SAN CARLOS,CA,94070,2985000,4,4.0,SAN CARLOS,2158,7200,1956,117,1383,,Sold,,,http://www.redfin.com/CA/San-Carlos/60-Hartford-Ave-94070/home/1294392,MLSListings,ML81842182,N,Y,37.5118236,-122.2770636
PAST SALE,June-15-2021,Single Family Residential,1015 Holly St,SAN CARLOS,CA,94070,1960000,5,3.5,SAN CARLOS,2100,5450,1939,75,933,,Sold,,,http://www.redfin.com/CA/San-Carlos/1015-Holly-St-94070/home/1591068,MLSListings,ML81835528,Y,Y,37.510046,-122.2599607
PAST SALE,June-14-2021,Single Family Residential,2440 San Carlos Ave,SAN CARLOS,CA,94070,2700000,3,2.0,SAN CARLOS,1930,8000,1947,76,1399,,Sold,,,http://www.redfin.com/CA/San-Carlos/2440-San-Carlos-Ave-94070/home/1903624,MLSListings,ML81841927,N,Y,37.5040702,-122.2796775
PAST SALE,July-9-2021,Single Family Residential,435 Shelford Ave,SAN CARLOS,CA,94070,2935000,3,2.5,SAN CARLOS,1950,19600,1963,51,1505,,Sold,,,http://www.redfin.com/CA/San-Carlos/435-Shelford-Ave-94070/home/1973617,MLSListings,ML81844790,N,Y,37.5112247,-122.2749812
PAST SALE,March-11-2021,Single Family Residential,136 Chestnut St,SAN CARLOS,CA,94070,2350000,3,2.0,SAN CARLOS,1970,5500,1950,171,1193,,Sold,,,http://www.redfin.com/CA/San-Carlos/136-Chestnut-St-94070/home/1477901,MLSListings,ML81828704,N,Y,37.5094413,-122.2686897
PAST SALE,August-17-2021,Single Family Residential,800 Buckland Ave,SAN CARLOS,CA,94070,2530888,3,2.0,SAN CARLOS,1650,7200,1955,12,1534,,Sold,,,http://www.redfin.com/CA/San-Carlos/800-Buckland-Ave-94070/home/1540853,MLSListings,ML81850046,N,Y,37.5123331,-122.2787028
PAST SALE,August-26-2021,Single Family Residential,6 Walton St,SAN CARLOS,CA,94070,2485000,3,2.0,SAN CARLOS,1660,7208,1959,3,1497,,Sold,,,http://www.redfin.com/CA/San-Carlos/6-Walton-St-94070/home/770794,MLSListings,ML81854993,N,Y,37.5109128,-122.2718355
PAST SALE,August-17-2021,Single Family Residential,320 Cedar St,SAN CARLOS,CA,94070,2575000,3,2.0,SAN CARLOS,1800,6500,1942,12,1431,,Sold,,,http://www.redfin.com/CA/San-Carlos/320-Cedar-St-94070/home/1659567,MLSListings,ML81852258,N,Y,37.5066322,-122.2683348
PAST SALE,August-26-2021,Single Family Residential,2100 Carmelita Dr,SAN CARLOS,CA,94070,2200000,3,2.0,SAN CARLOS,1415,7018,1940,3,1555,,Sold,,,http://www.redfin.com/CA/San-Carlos/2100-Carmelita-Dr-94070/home/1987953,MLSListings,ML81853648,Y,Y,37.5018484,-122.2718798
PAST SALE,August-27-2021,Single Family Residential,184 Lyndhurst Ave,SAN CARLOS,CA,94070,2315000,3,2.0,SAN CARLOS,1660,7650,1956,2,1395,,Sold,,,http://www.redfin.com/CA/San-Carlos/184-Lyndhurst-Ave-94070/home/2024628,MLSListings,ML81855185,N,Y,37.5112239,-122.2781712
PAST SALE,May-5-2021,Single Family Residential,207 & 207A Manor Dr,SAN CARLOS,CA,94070,2150000,3,2.0,SAN CARLOS,1840,13300,1947,116,1168,,Sold,,,http://www.redfin.com/CA/San-Carlos/207a-Manor-Dr-94070/home/174109271,MLSListings,ML81824064,N,Y,37.500088,-122.2754339
PAST SALE,May-7-2021,Single Family Residential,1354 Cordilleras Ave,SAN CARLOS,CA,94070,2200000,3,2.0,SAN CARLOS,1640,7100,1938,114,1341,,Sold,,,http://www.redfin.com/CA/San-Carlos/1354-Cordilleras-Ave-94070/home/2011583,MLSListings,ML81831575,Y,Y,37.491774,-122.2580553
PAST SALE,June-22-2021,Single Family Residential,2211 Howard Ave,SAN CARLOS,CA,94070,2320000,3,2.0,SAN CARLOS,1332,6360,1941,68,1742,,Sold,,,http://www.redfin.com/CA/San-Carlos/2211-Howard-Ave-94070/home/2031963,MLSListings,ML81843477,N,Y,37.492753,-122.2593847
PAST SALE,June-30-2021,Single Family Residential,1301 Greenwood Ave,SAN CARLOS,CA,94070,2235297,3,2.0,SAN CARLOS,1520,5200,1950,60,1471,,Sold,,,http://www.redfin.com/CA/San-Carlos/1301-Greenwood-Ave-94070/home/2034185,MLSListings,ML81845894,N,Y,37.4979619,-122.2526048
PAST SALE,June-18-2021,Single Family Residential,11 Hilltop Dr,SAN CARLOS,CA,94070,1700000,3,1.5,SAN CARLOS,1420,6400,1947,72,1197,,Sold,,,http://www.redfin.com/CA/San-Carlos/11-Hilltop-Dr-94070/home/1249129,MLSListings,ML81824207,N,Y,37.4883219,-122.2595619
PAST SALE,,Single Family Residential,230 Alberta Ave,San Carlos,CA,94070,1850000,2,2.0,,1270,4440,1948,,1457,,,,,http://www.redfin.com/CA/San-Carlos/230-Alberta-Ave-94070/home/2052356,,,N,Y,37.4889647,-122.2549977
PAST SALE,July-16-2021,Single Family Residential,324 Emerald Ave,SAN CARLOS,CA,94070,1940000,3,2.0,SAN CARLOS,1460,6000,1949,44,1329,,Sold,,,http://www.redfin.com/CA/San-Carlos/324-Emerald-Ave-94070/home/801943,MLSListings,ML81847067,Y,Y,37.488141,-122.259296
PAST SALE,,Single Family Residential,1924 St Francis Way,San Carlos,CA,94070,2171000,3,2.0,,1680,6050,1939,,1292,,,,,http://www.redfin.com/CA/San-Carlos/1924-St-Francis-Way-94070/home/800885,,,N,Y,37.4900191,-122.2520287
PAST SALE,June-16-2021,Single Family Residential,911 Sunset Dr,SAN CARLOS,CA,94070,1613400,2,2.0,SAN CARLOS,1350,8072,1934,74,1195,,Sold,,,http://www.redfin.com/CA/San-Carlos/911-Sunset-Dr-94070/home/789335,MLSListings,ML81849209,N,Y,37.4909274,-122.267582
PAST SALE,April-8-2021,Single Family Residential,865 Sunset Dr,SAN CARLOS,CA,94070,1925000,4,3.0,SAN CARLOS,1740,16000,1943,143,1106,,Sold,,,http://www.redfin.com/CA/San-Carlos/865-Sunset-Dr-94070/home/789377,MLSListings,ML81827662,N,Y,37.4919987,-122.2676263
PAST SALE,May-21-2021,Single Family Residential,2460 Howard Ave,SAN CARLOS,CA,94070,3800000,5,3.0,SAN CARLOS,3293,10500,1990,100,1154,,Sold,,,http://www.redfin.com/CA/San-Carlos/2460-Howard-Ave-94070/home/793557,MLSListings,ML81842290,N,Y,37.4891946,-122.2643696
PAST SALE,June-23-2021,Single Family Residential,2616 Thornhill Dr,SAN CARLOS,CA,94070,1630000,3,2.0,SAN CARLOS,1152,5670,1951,67,1415,,Sold,,,http://www.redfin.com/CA/San-Carlos/2616-Thornhill-Dr-94070/home/796436,MLSListings,ML81834535,Y,Y,37.4884573,-122.2654995
PAST SALE,,Single Family Residential,222 Rockridge Rd,San Carlos,CA,94070,2950000,4,2.5,,2520,12105,1953,,1171,,,,,http://www.redfin.com/CA/San-Carlos/222-Rockridge-Rd-94070/home/1257838,,,N,Y,37.4931397,-122.2652336
PAST SALE,June-10-2021,Single Family Residential,109 Brook St,SAN CARLOS,CA,94070,2060000,3,3.0,SAN CARLOS,1727,5269,1928,80,1193,,Sold,,,http://www.redfin.com/CA/San-Carlos/109-Brook-St-94070/home/1341113,MLSListings,ML81841207,Y,Y,37.4918034,-122.2637271
PAST SALE,June-17-2021,Single Family Residential,128 Brook St,SAN CARLOS,CA,94070,2300000,2,1.0,SAN CARLOS,870,9800,1948,73,2644,,Sold,,,http://www.redfin.com/CA/San-Carlos/128-Brook-St-94070/home/2039173,MLSListings,ML81846108,Y,Y,37.4908931,-122.2642588
PAST SALE,March-4-2021,Single Family Residential,984 Alameda,SAN CARLOS,CA,94070,2608000,4,3.5,SAN CARLOS,3111,6189,2016,178,838,,Sold,,,http://www.redfin.com/CA/San-Carlos/984-E-San-Carlos-Ave-94070/home/109581842,MLSListings,ML81827410,N,Y,37.49197,-122.266559
PAST SALE,August-25-2021,Single Family Residential,31 Camelot Ct,SAN CARLOS,CA,94070,2925000,4,2.5,SAN CARLOS,2580,7900,1969,4,1134,,Sold,,,http://www.redfin.com/CA/San-Carlos/31-Camelot-Ct-94070/home/1059512,MLSListings,ML81859952,N,Y,37.4837085,-122.2589859
PAST SALE,August-6-2021,Single Family Residential,1384 Chestnut St,SAN CARLOS,CA,94070,2600000,4,3.0,SAN CARLOS,1782,5526,1939,23,1459,,Sold,,,http://www.redfin.com/CA/San-Carlos/1384-Chestnut-St-94070/home/1123479,MLSListings,ML81851058,Y,Y,37.494036,-122.254624
PAST SALE,March-3-2021,Single Family Residential,1180 Alameda,San Carlos,CA,94070,2125000,4,4.0,San Carlos,2436,5060,1949,179,872,,Sold,,,http://www.redfin.com/CA/San-Carlos/1180-San-Carlos-Ave-94070/home/796392,"bridgeMLS, Bay East AOR, or Contra Costa AOR",40933251,N,Y,37.5068618,-122.2612347
PAST SALE,,Single Family Residential,1040 Springfield Dr,San Carlos,CA,94070,1770000,3,2.0,,1915,5000,1948,,924,,,,,http://www.redfin.com/CA/San-Carlos/1040-Springfield-Dr-94070/home/1741367,,,N,Y,37.5105487,-122.2613787
PAST SALE,July-9-2021,Single Family Residential,2001 Eucalyptus Ave,SAN CARLOS,CA,94070,3695000,4,4.5,SAN CARLOS,2903,6275,2021,51,1273,,Sold,,,http://www.redfin.com/CA/San-Carlos/2001-Eucalyptus-Ave-94070/home/2019800,MLSListings,ML81831971,Y,Y,37.4947743,-122.2614673
PAST SALE,,Single Family Residential,1969 Arroyo Ave,San Carlos,CA,94070,2400000,3,3.0,,2260,5000,1945,,1062,,,,,http://www.redfin.com/CA/San-Carlos/1969-Arroyo-Ave-94070/home/793145,,,N,Y,37.4962072,-122.2620433
PAST SALE,April-30-2021,Single Family Residential,1059 Sunset Dr,SAN CARLOS,CA,94070,1870000,3,2.0,SAN CARLOS,1650,5700,1950,121,1133,,Sold,,,http://www.redfin.com/CA/San-Carlos/1059-Sunset-Dr-94070/home/789270,MLSListings,ML81836375,Y,Y,37.4902539,-122.2691771
PAST SALE,June-8-2021,Single Family Residential,26 Cobblestone Ln,SAN CARLOS,CA,94070,4625000,6,5.0,SAN CARLOS,5170,12300,1976,82,895,,Sold,,,http://www.redfin.com/CA/San-Carlos/26-Cobblestone-Ln-94070/home/1919888,MLSListings,ML81844155,N,Y,37.4869686,-122.2699525
PAST SALE,July-23-2021,Single Family Residential,2417 Melendy Dr,SAN CARLOS,CA,94070,2511116,3,2.0,SAN CARLOS,1850,6960,1959,37,1357,,Sold,,,http://www.redfin.com/CA/San-Carlos/2417-Melendy-Dr-94070/home/1897820,MLSListings,ML81849069,Y,Y,37.49315,-122.2685125
PAST SALE,August-3-2021,Single Family Residential,945 Sunset Dr,SAN CARLOS,CA,94070,1650000,4,2.5,SAN CARLOS,2200,8280,1941,26,750,,Sold,,,http://www.redfin.com/CA/San-Carlos/945-Sunset-Dr-94070/home/2057305,MLSListings,ML81856773,N,Y,37.4906987,-122.2688226
PAST SALE,April-8-2021,Single Family Residential,128 Ruby Ave,SAN CARLOS,CA,94070,1800000,3,1.5,SAN CARLOS,1310,4600,1941,143,1374,,Sold,,,http://www.redfin.com/CA/San-Carlos/128-Ruby-Ave-94070/home/17309253,MLSListings,ML81833822,N,Y,37.4879746,-122.2578781
PAST SALE,April-12-2021,Single Family Residential,235 Pearl Ave,SAN CARLOS,CA,94070,3300000,4,3.5,SAN CARLOS,2388,6100,2021,139,1382,,Sold,,,http://www.redfin.com/CA/San-Carlos/235-Pearl-Ave-94070/home/1616512,MLSListings,ML81821526,N,Y,37.4883351,-122.2563271
PAST SALE,June-15-2021,Single Family Residential,324 Oakview Dr,SAN CARLOS,CA,94070,3150000,4,3.5,SAN CARLOS,3635,6375,1991,75,867,,Sold,,,http://www.redfin.com/CA/San-Carlos/324-Oakview-Dr-94070/home/1973843,MLSListings,ML81840176,N,Y,37.4907785,-122.2584984
PAST SALE,August-23-2021,Single Family Residential,328 Hill Way,SAN CARLOS,CA,94070,2795000,4,3.0,SAN CARLOS,2523,5000,2021,6,1108,,Sold,,,http://www.redfin.com/CA/San-Carlos/328-Hill-Way-94070/home/1434004,MLSListings,ML81827766,N,Y,37.4871914,-122.2620433
PAST SALE,March-11-2021,Single Family Residential,12 Liberty Hall Ln,REDWOOD CITY,CA,94062,3000000,4,3.5,REDWOOD CITY,3375,6642,2017,171,889,175,Sold,,,http://www.redfin.com/CA/Redwood-City/12-Liberty-Hall-Ln-94062/home/144635069,MLSListings,ML81827923,N,Y,37.4927947,-122.2447608
PAST SALE,March-2-2021,Single Family Residential,953 Alameda,SAN CARLOS,CA,94070,2450000,3,2.0,SAN CARLOS,1950,5500,1948,180,1256,,Sold,,,http://www.redfin.com/CA/San-Carlos/953-E-San-Carlos-Ave-94070/home/789425,MLSListings,ML81827994,N,Y,37.492799,-122.266145
PAST SALE,April-1-2021,Single Family Residential,87 Bayport Ct,SAN CARLOS,CA,94070,2560000,4,3.0,SAN CARLOS,2430,5928,1987,150,1053,,Sold,,,http://www.redfin.com/CA/San-Carlos/87-Bayport-Ct-94070/home/1875937,MLSListings,ML81831256,N,Y,37.5111589,-122.2571691
PAST SALE,March-5-2021,Single Family Residential,38 Pine Ave,SAN CARLOS,CA,94070,3126000,4,3.5,SAN CARLOS,2979,6506,2005,177,1049,,Sold,,,http://www.redfin.com/CA/San-Carlos/38-Pine-Ave-94070/home/1237125,MLSListings,ML81826891,N,Y,37.5001686,-122.2701519
PAST SALE,,Single Family Residential,1989 Belle Ave,San Carlos,CA,94070,2700000,3,3.0,,2431,5858,1946,,1111,,,,,http://www.redfin.com/CA/San-Carlos/1989-Belle-Ave-94070/home/1523243,,,N,Y,37.4964036,-122.2632397
PAST SALE,August-16-2021,Single Family Residential,780 Knoll Dr,SAN CARLOS,CA,94070,3700000,6,4.5,SAN CARLOS,3685,12284,1950,13,1004,,Sold,,,http://www.redfin.com/CA/San-Carlos/780-Knoll-Dr-94070/home/1059383,MLSListings,ML81853069,N,Y,37.4987461,-122.265433
PAST SALE,,Condo/Co-op,1501 San Carlos Ave,San Carlos,CA,94070,1950000,,,,,,,,,,,,,http://www.redfin.com/CA/San-Carlos/1501-San-Carlos-Ave-94070/home/789725,,,N,Y,37.5041309,-122.2639044
PAST SALE,May-27-2021,Single Family Residential,389 Glenwood St,SAN CARLOS,CA,94070,2620000,3,2.0,SAN CARLOS,2360,9750,1936,94,1110,,Sold,,,http://www.redfin.com/CA/San-Carlos/389-Glenwood-St-94070/home/790189,MLSListings,ML81839649,N,Y,37.5068402,-122.2669174
PAST SALE,April-30-2021,Single Family Residential,401 Chestnut St,SAN CARLOS,CA,94070,2575000,4,2.0,SAN CARLOS,2390,6600,1954,121,1077,,Sold,,,http://www.redfin.com/CA/San-Carlos/401-Chestnut-St-94070/home/790288,MLSListings,ML81838254,N,Y,37.5067587,-122.266142
PAST SALE,June-18-2021,Single Family Residential,525 Sycamore St,SAN CARLOS,CA,94070,3000000,4,3.5,SAN CARLOS,2755,5661,2001,72,1089,,Sold,,,http://www.redfin.com/CA/San-Carlos/525-Sycamore-St-94070/home/1014402,MLSListings,ML81843350,N,Y,37.5037628,-122.2668288
PAST SALE,,Single Family Residential,504 Elm St,San Carlos,CA,94070,1950000,3,3.0,,1710,5600,1957,,1140,,,,,http://www.redfin.com/CA/San-Carlos/504-Elm-St-94070/home/1952353,,,N,Y,37.5062545,-122.2647906
PAST SALE,July-28-2021,Single Family Residential,322 Elm St,SAN CARLOS,CA,94070,3220000,4,3.5,SAN CARLOS,2522,14400,1948,32,1277,,Sold,,,http://www.redfin.com/CA/San-Carlos/322-Elm-St-94070/home/2009086,MLSListings,ML81849688,N,Y,37.5088142,-122.2662084
PAST SALE,July-28-2021,Single Family Residential,517 Cedar St,SAN CARLOS,CA,94070,2000000,3,1.0,SAN CARLOS,1290,5824,1946,32,1550,,Sold,,,http://www.redfin.com/CA/San-Carlos/517-Cedar-St-94070/home/1583120,MLSListings,ML81850560,Y,Y,37.5046378,-122.2656767
PAST SALE,April-23-2021,Single Family Residential,1244 Elm St,SAN CARLOS,CA,94070,3500000,5,3.5,SAN CARLOS,2580,8710,1940,128,1357,,Sold,,,http://www.redfin.com/CA/San-Carlos/1244-Elm-St-94070/home/2019866,MLSListings,ML81836082,Y,Y,37.4971639,-122.2531365
PAST SALE,May-24-2021,Single Family Residential,1152 Royal Ln,SAN CARLOS,CA,94070,2075001,3,2.5,SAN CARLOS,2720,2256,1983,97,763,506,Sold,,,http://www.redfin.com/CA/San-Carlos/1152-Royal-Ln-94070/home/795555,MLSListings,ML81840598,N,Y,37.4809336,-122.2831774
PAST SALE,July-27-2021,Single Family Residential,126 Fairbanks Ave,SAN CARLOS,CA,94070,2230000,3,2.5,SAN CARLOS,2030,6150,1953,33,1099,,Sold,,,http://www.redfin.com/CA/San-Carlos/126-Fairbanks-Ave-94070/home/1183307,MLSListings,ML81847322,N,Y,37.4905242,-122.2682909
PAST SALE,June-16-2021,Single Family Residential,1010 Crestview Dr,SAN CARLOS,CA,94070,2925000,4,2.5,SAN CARLOS,2300,8176,1965,74,1272,,Sold,,,http://www.redfin.com/CA/San-Carlos/1010-Crestview-Dr-94070/home/1699606,MLSListings,ML81844999,N,Y,37.4839595,-122.2844178
PAST SALE,July-28-2021,Single Family Residential,977 Crestview Dr,SAN CARLOS,CA,94070,2960000,4,2.5,SAN CARLOS,2750,12714,1966,32,1076,,Sold,,,http://www.redfin.com/CA/San-Carlos/977-Crestview-Dr-94070/home/1844774,MLSListings,ML81850196,N,Y,37.4851295,-122.2845064
PAST SALE,April-7-2021,Single Family Residential,227 Finger Ave,REDWOOD CITY,CA,94062,3100000,5,4.5,REDWOOD CITY,3010,5000,2018,144,1030,,Sold,,,http://www.redfin.com/CA/Redwood-City/227-Finger-Ave-94062/home/2059101,MLSListings,ML81829755,N,Y,37.4897853,-122.2465335
PAST SALE,March-10-2021,Single Family Residential,220 Frances Ln,SAN CARLOS,CA,94070,3588000,4,3.0,SAN CARLOS,3310,11858,1965,172,1084,,Sold,,,http://www.redfin.com/CA/San-Carlos/220-Frances-Ln-94070/home/794101,MLSListings,ML81826850,N,Y,37.4828814,-122.2602266
PAST SALE,May-17-2021,Single Family Residential,323 Palomar Dr,REDWOOD CITY,CA,94062,3199000,4,3.0,REDWOOD CITY,2314,12616,1937,104,1382,,Sold,,,http://www.redfin.com/CA/Redwood-City/323-Palomar-Dr-94062/home/796821,MLSListings,ML81833706,Y,Y,37.4803562,-122.2642145
PAST SALE,,Single Family Residential,267 Garnet Ave,San Carlos,CA,94070,3105000,5,4.0,,2770,6600,1941,,1121,,,,,http://www.redfin.com/CA/San-Carlos/267-Garnet-Ave-94070/home/799831,,,N,Y,37.4848493,-122.256593
PAST SALE,May-21-2021,Single Family Residential,1 Maple Way,SAN CARLOS,CA,94070,2035000,3,2.0,SAN CARLOS,1640,5100,1953,100,1241,,Sold,,,http://www.redfin.com/CA/San-Carlos/1-Maple-Way-94070/home/1808446,MLSListings,ML81842708,N,Y,37.4861345,-122.2624421
PAST SALE,June-17-2021,Single Family Residential,26 Maple Way,SAN CARLOS,CA,94070,1865000,3,2.0,SAN CARLOS,1510,5200,1954,73,1235,,Sold,,,http://www.redfin.com/CA/San-Carlos/26-Maple-Way-94070/home/1903734,MLSListings,ML81843341,N,Y,37.4853738,-122.2629739
PAST SALE,April-13-2021,Single Family Residential,216 Garnet Ave,SAN CARLOS,CA,94070,2020000,4,2.0,SAN CARLOS,1570,4000,1948,138,1287,,Sold,,,http://www.redfin.com/CA/San-Carlos/216-Garnet-Ave-94070/home/2042982,MLSListings,ML81833169,N,Y,37.4852091,-122.2577451
PAST SALE,August-26-2021,Single Family Residential,404 Palomar Dr,REDWOOD CITY,CA,94062,2100000,2,2.0,REDWOOD CITY,1330,8869,1953,3,1579,,Sold,,,http://www.redfin.com/CA/Redwood-City/404-Palomar-Dr-94062/home/796714,MLSListings,ML81852817,N,Y,37.4797763,-122.2650121
PAST SALE,July-27-2021,Single Family Residential,9 Cambridge St,SAN CARLOS,CA,94070,1900000,3,2.0,SAN CARLOS,1350,4095,1947,33,1407,,Sold,,,http://www.redfin.com/CA/San-Carlos/9-Cambridge-St-94070/home/782869,MLSListings,ML81848712,N,Y,37.5018174,-122.2768863
PAST SALE,June-18-2021,Single Family Residential,1573 Chestnut St,SAN CARLOS,CA,94070,3195000,4,3.5,SAN CARLOS,2667,5667,2020,72,1198,,Sold,,,http://www.redfin.com/CA/San-Carlos/1573-Chestnut-St-94070/home/2011601,MLSListings,ML81807079,N,Y,37.4921371,-122.2515855
PAST SALE,,Single Family Residential,1420 Orange Ave,San Carlos,CA,94070,4000000,6,6.0,,3850,7840,2007,,1039,,,,,http://www.redfin.com/CA/San-Carlos/1420-Orange-Ave-94070/home/1815797,,,N,Y,37.4921474,-122.2554187
PAST SALE,July-30-2021,Single Family Residential,1125 Walnut St,SAN CARLOS,CA,94070,2750000,3,2.0,SAN CARLOS,1730,4920,1945,30,1590,,Sold,,,http://www.redfin.com/CA/San-Carlos/1125-Walnut-St-94070/home/802433,MLSListings,ML81850892,N,Y,37.4992359,-122.2535797
PAST SALE,March-4-2021,Single Family Residential,2 Coleman Ct,SAN CARLOS,CA,94070,2000000,4,3.5,SAN CARLOS,3340,11600,1964,178,599,,Sold,,,http://www.redfin.com/CA/San-Carlos/2-Coleman-Ct-94070/home/1541063,MLSListings,ML81827805,N,Y,37.4981928,-122.2751585
PAST SALE,,Single Family Residential,831 Cedar St,San Carlos,CA,94070,1400000,3,1.0,,1060,5175,1938,,1321,,,,,http://www.redfin.com/CA/San-Carlos/831-Cedar-St-94070/home/2058019,,,N,Y,37.4992528,-122.2613787
PAST SALE,August-19-2021,Single Family Residential,798 Cedar St,SAN CARLOS,CA,94070,2190000,3,2.0,SAN CARLOS,1450,5610,1939,10,1510,,Sold,,,http://www.redfin.com/CA/San-Carlos/798-Cedar-St-94070/home/792689,MLSListings,ML81855947,Y,Y,37.4995333,-122.2621763
PAST SALE,May-27-2021,Single Family Residential,34 Hilltop Dr,SAN CARLOS,CA,94070,2400000,3,3.0,SAN CARLOS,1880,5500,1963,94,1277,,Sold,,,http://www.redfin.com/CA/San-Carlos/34-Hilltop-Dr-94070/home/798450,MLSListings,ML81842274,N,Y,37.4881474,-122.2606254
PAST SALE,April-23-2021,Single Family Residential,18 Hilltop Dr,SAN CARLOS,CA,94070,2465000,3,2.5,SAN CARLOS,1950,5100,1949,128,1264,,Sold,,,http://www.redfin.com/CA/San-Carlos/18-Hilltop-Dr-94070/home/1192676,MLSListings,ML81832604,N,Y,37.4886088,-122.2600937
PAST SALE,June-28-2021,Single Family Residential,24 S Palomar Dr,REDWOOD CITY,CA,94062,2701331,3,3.0,REDWOOD CITY,2410,8608,1942,62,1121,,Sold,,,http://www.redfin.com/CA/Redwood-City/24-S-Palomar-Dr-94062/home/1070567,MLSListings,ML81843870,N,Y,37.4791867,-122.2667623
PAST SALE,,Single Family Residential,2940 Eaton Ave,San Carlos,CA,94070,3100000,3,3.0,,2560,12000,1958,,1211,,,,,http://www.redfin.com/CA/San-Carlos/2940-Eaton-Ave-94070/home/1632990,,,N,Y,37.4846663,-122.2692214
PAST SALE,July-30-2021,Single Family Residential,18 Estrada Pl,SAN CARLOS,CA,94070,5500000,4,3.5,SAN CARLOS,4616,30000,2021,30,1192,,Sold,,,http://www.redfin.com/CA/San-Carlos/18-Estrada-Pl-94070/home/1000201,MLSListings,ML81848255,N,Y,37.4827078,-122.2687119
PAST SALE,,Single Family Residential,1029 Hewitt Dr,San Carlos,CA,94070,3260000,4,3.0,,2253,10240,1961,,1447,,,,,http://www.redfin.com/CA/San-Carlos/1029-Hewitt-Dr-94070/home/793284,,,N,Y,37.4927211,-122.2724337
PAST SALE,June-30-2021,Single Family Residential,1912 Howard Ave,SAN CARLOS,CA,94070,2150000,4,2.0,SAN CARLOS,1570,4865,1947,60,1369,,Sold,,,http://www.redfin.com/CA/San-Carlos/1912-Howard-Ave-94070/home/1741773,MLSListings,ML81842870,Y,Y,37.4945642,-122.2571247
PAST SALE,April-16-2021,Single Family Residential,1545 Chestnut St,San Carlos,CA,94070,2520000,3,2.0,San Carlos,2130,5650,1950,135,1183,,Sold,,,http://www.redfin.com/CA/San-Carlos/1545-Chestnut-St-94070/home/1783932,CRMLS,SC21050171,N,Y,37.4924541,-122.2518957
PAST SALE,May-28-2021,Single Family Residential,165 Park Ave,SAN CARLOS,CA,94070,2860000,5,3.0,SAN CARLOS,2680,5550,1945,93,1067,,Sold,,,http://www.redfin.com/CA/San-Carlos/165-Park-Ave-94070/home/1947165,MLSListings,ML81837434,N,Y,37.4918413,-122.2546432
PAST SALE,June-18-2021,Single Family Residential,757 Knoll Dr,SAN CARLOS,CA,94070,2635500,3,3.0,SAN CARLOS,2220,14580,1949,72,1187,,Sold,,,http://www.redfin.com/CA/San-Carlos/757-Knoll-Dr-94070/home/1991650,MLSListings,ML81843776,N,Y,37.4995405,-122.2655881
PAST SALE,,Single Family Residential,209 Devonshire Blvd,San Carlos,CA,94070,2650000,4,2.0,,1980,6000,1958,,1338,,,,,http://www.redfin.com/CA/San-Carlos/209-Devonshire-Blvd-94070/home/2039119,,,N,Y,37.498455,-122.280051
PAST SALE,July-6-2021,Single Family Residential,1719 Walnut St,SAN CARLOS,CA,94070,2310000,3,2.0,SAN CARLOS,1460,5500,1947,54,1582,,Sold,,,http://www.redfin.com/CA/San-Carlos/1719-Walnut-St-94070/home/1735090,MLSListings,ML81843670,Y,Y,37.4935101,-122.2467108
PAST SALE,July-9-2021,Single Family Residential,1560 Howard Ave,SAN CARLOS,CA,94070,1860000,2,2.0,SAN CARLOS,930,5520,1947,51,2000,,Sold,,,http://www.redfin.com/CA/San-Carlos/1560-Howard-Ave-94070/home/1947198,MLSListings,ML81849971,Y,Y,37.4965582,-122.2545103
PAST SALE,April-12-2021,Single Family Residential,1029 Hewitt Dr,SAN CARLOS,CA,94070,3260000,4,3.0,SAN CARLOS,2253,10240,1961,139,1447,,Sold,,,http://www.redfin.com/CA/San-Carlos/1029-Hewitt-Dr-94070/home/68064553,MLSListings,ML81832146,N,Y,37.4927211,-122.2724337
PAST SALE,July-23-2021,Single Family Residential,754 Cordilleras Ave,SAN CARLOS,CA,94070,2425000,3,1.0,SAN CARLOS,1530,10890,1941,37,1585,,Sold,,,http://www.redfin.com/CA/San-Carlos/754-Cordilleras-Ave-94070/home/2034142,MLSListings,ML81848774,Y,Y,37.4989658,-122.2672275
PAST SALE,August-13-2021,Single Family Residential,908 Walnut St,SAN CARLOS,CA,94070,1927908,3,1.0,SAN CARLOS,1350,6000,1927,16,1428,,Sold,,,http://www.redfin.com/CA/San-Carlos/908-Walnut-St-94070/home/1783897,MLSListings,ML81854792,Y,Y,37.5018318,-122.2572134
PAST SALE,June-10-2021,Single Family Residential,2032 Arroyo Ave,SAN CARLOS,CA,94070,2450000,3,2.0,SAN CARLOS,1770,5000,1946,80,1384,,Sold,,,http://www.redfin.com/CA/San-Carlos/2032-Arroyo-Ave-94070/home/792190,MLSListings,ML81841549,N,Y,37.4956326,-122.2636828
PAST SALE,June-4-2021,Single Family Residential,888 BAUER Dr,SAN CARLOS,CA,94070,2555000,3,2.5,SAN CARLOS,1890,11100,1960,86,1352,,Sold,,,http://www.redfin.com/CA/San-Carlos/888-Bauer-Dr-94070/home/1699568,MLSListings,ML81840481,Y,Y,37.4953508,-122.2687783
PAST SALE,,Single Family Residential,2072 Arroyo Ave,San Carlos,CA,94070,2500000,3,2.0,,1810,5000,1946,,1381,,,,,http://www.redfin.com/CA/San-Carlos/2072-Arroyo-Ave-94070/home/1892041,,,N,Y,37.4952221,-122.2641702
PAST SALE,March-30-2021,Single Family Residential,2072 Birch Ave,SAN CARLOS,CA,94070,3350000,4,3.5,SAN CARLOS,2645,5000,2021,152,1267,,Sold,,,http://www.redfin.com/CA/San-Carlos/2072-Birch-Ave-94070/home/2021788,MLSListings,ML81836602,N,Y,37.4948158,-122.263417
