SALE TYPE,SOLD DATE,PROPERTY TYPE,ADDRESS,CITY,STATE OR PROVINCE,ZIP OR POSTAL CODE,PRICE,BEDS,BATHS,LOCATION,SQUARE FEET,LOT SIZE,YEAR BUILT,DAYS ON MARKET,$/SQUARE FEET,HOA/MONTH,STATUS,NEXT OPEN HOUSE START TIME,NEXT OPEN HOUSE END TIME,URL (SEE http://www.redfin.com/buy-a-home/comparative-market-analysis FOR INFO ON PRICING),SOURCE,MLS#,FAVORITE,INTERESTED,LATITUDE,LONGITUDE
PAST SALE,April-27-2021,Single Family Residential,1006 8th Ave,REDWOOD CITY,CA,94063,980000,2,1.0,REDWOOD CITY,1120,6000,1947,124,875,,Sold,,,http://www.redfin.com/CA/Redwood-City/1006-Eighth-Ave-94063/home/822872,MLSListings,ML81839096,N,Y,37.4827919,-122.1946257
PAST SALE,June-4-2021,Single Family Residential,1099 Haven Ave,REDWOOD CITY,CA,94063,1050000,4,2.0,REDWOOD CITY,1260,5850,1940,86,833,,Sold,,,http://www.redfin.com/CA/Redwood-City/1099-Haven-Ave-94063/home/823111,MLSListings,ML81842718,N,Y,37.4843719,-122.1904135
PAST SALE,May-20-2021,Single Family Residential,984 8th Ave,REDWOOD CITY,CA,94063,1600000,5,2.0,REDWOOD CITY,2067,7400,1947,101,774,,Sold,,,http://www.redfin.com/CA/Redwood-City/984-Eighth-Ave-94063/home/823327,MLSListings,ML81838964,Y,Y,37.4822619,-122.1948917
PAST SALE,,Single Family Residential,3203 Page St,Redwood City,CA,94063,1050000,2,1.0,,910,6000,1946,,1154,,,,,http://www.redfin.com/CA/Redwood-City/3203-Page-St-94063/home/1173237,,,N,Y,37.4834071,-122.1966652
PAST SALE,June-11-2021,Single Family Residential,1033 Haven Ave,Redwood City,CA,94063,1876100,3,3.0,Redwood City,1998,6000,1947,79,939,,Sold,,,http://www.redfin.com/CA/Redwood-City/1033-Haven-Ave-94063/home/1523746,"bridgeMLS, Bay East AOR, or Contra Costa AOR",40946922,N,Y,37.4825901,-122.1908569
PAST SALE,August-11-2021,Single Family Residential,1176 Eighteenth Ave,REDWOOD CITY,CA,94063,1300000,2,1.0,REDWOOD CITY,1100,6000,1948,18,1182,,Sold,,,http://www.redfin.com/CA/Redwood-City/1176-18th-Ave-94063/home/1881861,MLSListings,ML81851885,N,Y,37.4825678,-122.1846491
PAST SALE,March-25-2021,Single Family Residential,3338 Page St,Redwood City,CA,94063,1710000,3,2.5,Redwood City,1855,6950,1947,157,922,,Sold,,,http://www.redfin.com/CA/Redwood-City/3338-Page-St-94063/home/1249410,"bridgeMLS, Bay East AOR, or Contra Costa AOR",40937392,N,Y,37.4819086,-122.1939606
PAST SALE,July-1-2021,Single Family Residential,3335 spring,Redwood City,CA,94063,1955888,6,4.0,Redwood City,2400,8000,1947,59,815,,Sold,,,http://www.redfin.com/CA/Redwood-City/3335-Spring-St-94063/home/1685638,"bridgeMLS, Bay East AOR, or Contra Costa AOR",40950750,N,Y,37.4784631,-122.1951356
PAST SALE,March-24-2021,Single Family Residential,667 4th Ave,REDWOOD CITY,CA,94063,725000,2,1.0,REDWOOD CITY,800,3000,1957,158,906,,Sold,,,http://www.redfin.com/CA/Redwood-City/667-Fourth-Ave-94063/home/1685964,MLSListings,ML81832639,N,Y,37.4778409,-122.2025066
PAST SALE,July-1-2021,Single Family Residential,1020 8th Ave,REDWOOD CITY,CA,94063,1355000,3,1.5,REDWOOD CITY,930,7542,1949,59,1457,,Sold,,,http://www.redfin.com/CA/Redwood-City/1020-Eighth-Ave-94063/unit-H/home/1793104,MLSListings,ML81835792,N,Y,37.4832172,-122.1945814
PAST SALE,April-30-2021,Single Family Residential,1016 Dodge Dr,REDWOOD CITY,CA,94063,1383000,3,2.0,REDWOOD CITY,1495,5790,1985,121,925,,Sold,,,http://www.redfin.com/CA/Redwood-City/1016-Dodge-Dr-94063/home/1850355,MLSListings,ML81832643,N,Y,37.4835704,-122.1955125
PAST SALE,June-2-2021,Single Family Residential,748 3rd Ave,REDWOOD CITY,CA,94063,1250000,2,1.0,REDWOOD CITY,930,6000,1940,88,1344,,Sold,,,http://www.redfin.com/CA/Redwood-City/748-Third-Ave-94063/home/1876537,MLSListings,ML81841179,N,Y,37.479747,-122.2018083
PAST SALE,August-19-2021,Single Family Residential,947 7th Ave,REDWOOD CITY,CA,94063,1500000,3,2.0,REDWOOD CITY,1552,5355,1955,10,966,,Sold,,,http://www.redfin.com/CA/Redwood-City/947-Seventh-Ave-94063/home/2056387,MLSListings,ML81848361,N,Y,37.4824159,-122.1963549
PAST SALE,June-7-2021,Single Family Residential,895 15th Ave,Menlo Park,CA,94025,1515000,2,2.0,North Fair Oaks,1030,6200,1950,83,1471,,Sold,,,http://www.redfin.com/CA/Menlo-Park/895-Fifteenth-Ave-94025/home/1231549,"bridgeMLS, Bay East AOR, or Contra Costa AOR",40948523,N,Y,37.476522,-122.1873261
PAST SALE,April-5-2021,Single Family Residential,3651 Florence St,REDWOOD CITY,CA,94063,1600000,3,3.0,REDWOOD CITY,1737,5500,1948,146,921,,Sold,,,http://www.redfin.com/CA/Redwood-City/3651-Florence-St-94063/home/1685670,MLSListings,ML81831392,N,Y,37.47895,-122.1879304
PAST SALE,March-9-2021,Single Family Residential,839 Marsh Rd,MENLO PARK,CA,94025,1371000,3,2.0,MENLO PARK,1300,4700,1949,173,1055,,Sold,,,http://www.redfin.com/CA/Menlo-Park/839-Marsh-Rd-94025/home/2032048,MLSListings,ML81828350,N,Y,37.4760899,-122.187487
PAST SALE,,Single Family Residential,2931 Crocker Ave,Redwood City,CA,94063,800000,,,,,5103,,,,,,,,http://www.redfin.com/CA/Redwood-City/2931-Crocker-Ave-94063/home/2044472,,,N,Y,37.4752512,-122.2074831
PAST SALE,June-23-2021,Single Family Residential,565 Hurlingame Ave,Redwood City,CA,94063,950000,2,1.0,Redwood City,1320,6300,1927,67,,,Sold,,,http://www.redfin.com/CA/Redwood-City/565-Hurlingame-Ave-94063/home/816753,MetroList,421542990,N,Y,37.4790521,-122.2101541
PAST SALE,March-12-2021,Single Family Residential,543 Flynn Ave,REDWOOD CITY,CA,94063,1296888,3,2.0,REDWOOD CITY,1510,5000,1946,170,859,,Sold,,,http://www.redfin.com/CA/Redwood-City/543-Flynn-Ave-94063/home/1231493,MLSListings,ML81825904,N,Y,37.4808536,-122.2143213
PAST SALE,May-14-2021,Single Family Residential,2685 Halsey Ave,REDWOOD CITY,CA,94063,1420000,5,4.0,REDWOOD CITY,1607,5000,1951,107,884,,Sold,,,http://www.redfin.com/CA/Redwood-City/2685-Halsey-Ave-94063/home/1830473,MLSListings,ML81834849,N,Y,37.4797155,-122.2097884
PAST SALE,May-10-2021,Single Family Residential,522 Bay Rd,REDWOOD CITY,CA,94063,1175000,2,1.0,REDWOOD CITY,790,5000,1941,111,1487,,Sold,,,http://www.redfin.com/CA/Redwood-City/522-Bay-Rd-94063/home/1864233,MLSListings,ML81836609,N,Y,37.485886,-122.2203833
PAST SALE,July-8-2021,Single Family Residential,703 Flynn Ave,REDWOOD CITY,CA,94063,957000,2,1.0,REDWOOD CITY,890,5561,1946,52,1075,,Sold,,,http://www.redfin.com/CA/Redwood-City/703-Flynn-Ave-94063/home/815368,MLSListings,ML81845634,N,Y,37.4828399,-122.2128362
PAST SALE,July-15-2021,Single Family Residential,527 Flynn Ave,REDWOOD CITY,CA,94063,1250000,3,1.0,REDWOOD CITY,1010,5252,1946,45,1238,,Sold,,,http://www.redfin.com/CA/Redwood-City/527-Flynn-Ave-94063/home/1988140,MLSListings,ML81847093,N,Y,37.480399,-122.2146325
PAST SALE,July-28-2021,Single Family Residential,682 2nd Ave,REDWOOD CITY,CA,94063,1100000,2,1.0,REDWOOD CITY,1100,5900,1928,32,1000,,Sold,,,http://www.redfin.com/CA/Redwood-City/682-Second-Ave-94063/home/1360851,MLSListings,ML81848317,N,Y,37.4784561,-122.2037147
PAST SALE,August-23-2021,Single Family Residential,524 Scott Ave,REDWOOD CITY,CA,94063,1495000,3,2.0,REDWOOD CITY,1256,5016,1946,6,1190,,Sold,,,http://www.redfin.com/CA/Redwood-City/524-Scott-Ave-94063/home/1802164,MLSListings,ML81853847,N,Y,37.4787789,-122.2131133
PAST SALE,July-30-2021,Single Family Residential,624 Macarthur Ave,REDWOOD CITY,CA,94063,835000,2,1.0,REDWOOD CITY,770,2500,1981,30,1084,,Sold,,,http://www.redfin.com/CA/Redwood-City/624-MacArthur-Ave-94063/home/1036734,MLSListings,ML81852471,N,Y,37.4801571,-122.2098438
PAST SALE,June-17-2021,Single Family Residential,789 Douglas Ave,Redwood City,CA,94063,1250000,3,2.0,Redwood Village,1346,5000,1947,73,929,,Sold,,,http://www.redfin.com/CA/Redwood-City/789-Douglas-Ave-94063/home/815477,"bridgeMLS, Bay East AOR, or Contra Costa AOR",40942463,N,Y,37.4822816,-122.2099657
PAST SALE,April-8-2021,Single Family Residential,2761 Halsey Ave,Redwood City,CA,94063,1025000,2,1.0,Redwood City,1020,7500,1917,143,1005,,Sold,,,http://www.redfin.com/CA/Redwood-City/2761-Halsey-Ave-94063/home/819492,"bridgeMLS, Bay East AOR, or Contra Costa AOR",40938518,N,Y,37.4791843,-122.2084584
PAST SALE,April-5-2021,Single Family Residential,23 Meadow Ln,REDWOOD CITY,CA,94063,1300000,3,1.0,REDWOOD CITY,1130,5280,1946,146,1150,,Sold,,,http://www.redfin.com/CA/Redwood-City/23-Meadow-Ln-94063/home/2052381,MLSListings,ML81830118,N,Y,37.4804571,-122.2133792
PAST SALE,August-6-2021,Single Family Residential,626 Manzanita St,REDWOOD CITY,CA,94063,950000,3,3.0,REDWOOD CITY,1242,2400,2017,23,765,,Sold,,,http://www.redfin.com/CA/Redwood-City/626-Manzanita-St-94063/home/21841483,MLSListings,ML81847639,N,Y,37.4821857,-122.2173134
PAST SALE,August-10-2021,Single Family Residential,218 Park St,REDWOOD CITY,CA,94061,1260000,3,2.0,REDWOOD CITY,1470,6000,1940,19,857,,Sold,,,http://www.redfin.com/CA/Redwood-City/218-Park-St-94061/home/811112,MLSListings,ML81855050,N,Y,37.4717822,-122.2190091
PAST SALE,August-9-2021,Single Family Residential,500 Stanford Ave,Redwood City,CA,94063,745000,2,1.0,Redwood City,760,2500,1964,20,,,Sold,,,http://www.redfin.com/CA/Redwood-City/500-Stanford-Ave-94063/home/2054325,MetroList,421570588,N,Y,37.477579,-122.2096443
PAST SALE,August-13-2021,Single Family Residential,97 Markham Ave,REDWOOD CITY,CA,94063,1250000,2,1.0,REDWOOD CITY,800,6300,1938,16,1563,,Sold,,,http://www.redfin.com/CA/Redwood-City/97-Markham-Ave-94063/home/1213374,MLSListings,ML81851580,N,Y,37.4703349,-122.2102317
PAST SALE,July-6-2021,Single Family Residential,757 Douglas Ave,REDWOOD CITY,CA,94063,1350000,4,3.0,REDWOOD CITY,1708,5000,1947,54,790,,Sold,,,http://www.redfin.com/CA/Redwood-City/757-Douglas-Ave-94063/home/1071059,MLSListings,ML81848993,N,Y,37.4812933,-122.2106307
PAST SALE,July-26-2021,Single Family Residential,696 3rd Ave,REDWOOD CITY,CA,94063,900000,2,1.0,REDWOOD CITY,900,5040,1952,34,1000,,Sold,,,http://www.redfin.com/CA/Redwood-City/696-Third-Ave-94063/home/1144694,MLSListings,ML81855400,N,Y,37.4783409,-122.2027393
PAST SALE,August-6-2021,Single Family Residential,430 1st Ave,REDWOOD CITY,CA,94063,910000,2,1.5,REDWOOD CITY,1380,3325,1958,23,659,,Sold,,,http://www.redfin.com/CA/Redwood-City/430-1st-Ave-94063/home/1988365,MLSListings,ML81846200,N,Y,37.474987,-122.2070287
PAST SALE,,Single Family Residential,87 Markham Ave,Redwood City,CA,94063,875000,2,1.0,,800,6250,1938,,1094,,,,,http://www.redfin.com/CA/Redwood-City/87-Markham-Ave-94063/home/1268786,,,N,Y,37.4702091,-122.210276
PAST SALE,,Single Family Residential,208 Fourth Ave,Redwood City,CA,94063,1225000,2,2.0,,1250,6000,1941,,980,,,,,http://www.redfin.com/CA/Redwood-City/208-Fourth-Ave-94063/home/2044541,,,N,Y,37.4707997,-122.2062418
PAST SALE,August-11-2021,Single Family Residential,2799 Devonshire Ave,REDWOOD CITY,CA,94063,895000,2,1.0,REDWOOD CITY,790,4000,1948,18,1133,,Sold,,,http://www.redfin.com/CA/Redwood-City/2799-Devonshire-Ave-94063/home/1550784,MLSListings,ML81852929,N,Y,37.4726165,-122.2119606
PAST SALE,August-20-2021,Single Family Residential,473 4th Ave,REDWOOD CITY,CA,94063,1200000,3,2.0,REDWOOD CITY,1860,6000,1948,9,645,,Sold,,,http://www.redfin.com/CA/Redwood-City/473-Fourth-Ave-94063/home/845538,MLSListings,ML81859397,N,Y,37.4744326,-122.2045127
PAST SALE,,Single Family Residential,1067 17th Ave,Redwood City,CA,94063,1500000,3,2.0,,1400,6250,1947,,1071,,,,,http://www.redfin.com/CA/Redwood-City/1067-17th-Ave-94063/home/818271,,,N,Y,37.4800581,-122.187487
PAST SALE,May-17-2021,Single Family Residential,1061 17th Ave,REDWOOD CITY,CA,94063,1850000,3,2.0,REDWOOD CITY,1330,6250,1947,104,1391,,Sold,,,http://www.redfin.com/CA/Redwood-City/1061-17th-Ave-94063/home/1071153,MLSListings,ML81837618,N,Y,37.4799324,-122.1875313
PAST SALE,May-24-2021,Single Family Residential,831 8th Ave,REDWOOD CITY,CA,94063,1265000,2,1.0,REDWOOD CITY,1090,5450,1947,97,1161,,Sold,,,http://www.redfin.com/CA/Redwood-City/831-Eighth-Ave-94063/home/1099173,MLSListings,ML81813727,N,Y,37.4800621,-122.1967096
PAST SALE,March-3-2021,Single Family Residential,816 6th Ave,REDWOOD CITY,CA,94062,1222100,3,1.0,REDWOOD CITY,1270,5450,1948,179,962,,Sold,,,http://www.redfin.com/CA/Redwood-City/816-Sixth-Ave-94063/home/1285208,MLSListings,ML81824781,N,Y,37.4800599,-122.1982469
PAST SALE,March-23-2021,Single Family Residential,3436 Bay Rd,REDWOOD CITY,CA,94063,1478000,3,2.0,REDWOOD CITY,1340,6000,1946,159,1103,,Sold,,,http://www.redfin.com/CA/Redwood-City/3436-Bay-Rd-94063/home/1574683,MLSListings,ML81829751,N,Y,37.4790667,-122.1927191
PAST SALE,,Single Family Residential,1032 17th Ave,Redwood City,CA,94063,1020000,2,1.0,,1090,6000,1947,,936,,,,,http://www.redfin.com/CA/Redwood-City/1032-17th-Ave-94063/home/1753138,,,N,Y,37.4795161,-122.1871766
PAST SALE,June-17-2021,Single Family Residential,786 5Th Ave,Redwood City,CA,94063,1065000,3,2.0,North Fair Oaks,1050,5760,1934,73,1014,,Sold,,,http://www.redfin.com/CA/Redwood-City/786-Fifth-Ave-94063/home/1802512,"bridgeMLS, Bay East AOR, or Contra Costa AOR",40948439,N,Y,37.4793506,-122.1997578
PAST SALE,June-15-2021,Single Family Residential,835 8th Ave,REDWOOD CITY,CA,94063,1625000,3,2.0,REDWOOD CITY,1590,5450,1947,75,1022,,Sold,,,http://www.redfin.com/CA/Redwood-City/835-Eighth-Ave-94063/home/1864302,MLSListings,ML81843754,N,Y,37.4801879,-122.1966652
PAST SALE,June-7-2021,Single Family Residential,835 11th Ave,REDWOOD CITY,CA,94063,1600000,3,3.0,REDWOOD CITY,2030,5500,1947,83,788,,Sold,,,http://www.redfin.com/CA/Redwood-City/835-Eleventh-Ave-94063/home/1898095,MLSListings,ML81837981,N,Y,37.4793736,-122.1940493
PAST SALE,June-9-2021,Single Family Residential,760 2nd Ave,REDWOOD CITY,CA,94063,1388000,3,2.0,REDWOOD CITY,2130,5800,2001,81,652,,Sold,,,http://www.redfin.com/CA/Redwood-City/760-Second-Ave-94063/home/1920353,MLSListings,ML81826074,N,Y,37.4801646,-122.2026507
PAST SALE,August-9-2021,Single Family Residential,1009 Marsh Rd,REDWOOD CITY,CA,94063,1320000,3,2.0,REDWOOD CITY,1219,6000,1947,20,1083,,Sold,,,http://www.redfin.com/CA/Redwood-City/1009-Marsh-Rd-94063/home/1931732,MLSListings,ML81851113,N,Y,37.4791611,-122.1857576
PAST SALE,August-7-2021,Single Family Residential,3323 Spring St,Redwood City,CA,94063,1425000,2,1.0,Redwood City,1090,5850,1947,22,1307,,Sold,,,http://www.redfin.com/CA/Redwood-City/3323-Spring-St-94063/home/1497221,"bridgeMLS, Bay East AOR, or Contra Costa AOR",40956995,N,Y,37.4786847,-122.1958228
