SALE TYPE,SOLD DATE,PROPERTY TYPE,ADDRESS,CITY,STATE OR PROVINCE,ZIP OR POSTAL CODE,PRICE,BEDS,BATHS,LOCATION,SQUARE FEET,LOT SIZE,YEAR BUILT,DAYS ON MARKET,$/SQUARE FEET,HOA/MONTH,STATUS,NEXT OPEN HOUSE START TIME,NEXT OPEN HOUSE END TIME,URL (SEE https://www.redfin.com/buy-a-home/comparative-market-analysis FOR INFO ON PRICING),SOURCE,MLS#,FAVORITE,INTERESTED,LATITUDE,LONGITUDE
PAST SALE,March-18-2022,Single Family Residential,7448 Stanford Pl,Cupertino,CA,95014,2447250,3,2.0,CUPERTINO,1126,6016,1960,,2173,,Sold,,,https://www.redfin.com/CA/Cupertino/7448-Stanford-Pl-95014/home/713608,MLSListings,ML81883054,N,Y,37.3067298,-122.0361765
PAST SALE,,Single Family Residential,18660 Ralya Ct,Cupertino,CA,95014,4751000,6,5.0,,3807,9201,2022,,1248,,,,,https://www.redfin.com/CA/Cupertino/18660-Ralya-Ct-95014/home/1119379,,,N,Y,37.3193882,-121.9983603
PAST SALE,May-13-2022,Single Family Residential,10305 Tula Ln,Cupertino,CA,95014,4100000,4,2.5,CUPERTINO,2326,7811,1986,,1763,,Sold,,,https://www.redfin.com/CA/Cupertino/10305-Tula-Ln-95014/home/1216418,MLSListings,ML81891737,N,Y,37.3184471,-122.0400395
PAST SALE,July-28-2022,Single Family Residential,10080 Judy Ave,Cupertino,CA,95014,2500000,2,2.0,CUPERTINO,1613,9375,1949,,1550,,Sold,,,https://www.redfin.com/CA/Cupertino/10080-Judy-Ave-95014/home/794599,MLSListings,ML81901911,N,Y,37.3217102,-122.0051784
PAST SALE,August-4-2022,Single Family Residential,965 November Dr,Cupertino,CA,95014,2500000,3,2.0,CUPERTINO,1513,6000,1960,,1652,,Sold,,,https://www.redfin.com/CA/Cupertino/965-November-Dr-95014/home/785705,MLSListings,ML81900539,N,Y,37.3115982,-122.0476764
PAST SALE,,Single Family Residential,10930 Miramonte Rd,Cupertino,CA,95014,4000000,5,4.0,,4043,11047,1989,,989,,,,,https://www.redfin.com/CA/Cupertino/10930-Miramonte-Rd-95014/home/1150647,,,N,Y,37.3098345,-122.0701843
PAST SALE,,Single Family Residential,22079 San Fernando Ct,Cupertino,CA,95014,2500000,3,1.0,,2054,12797,1953,,1217,,,,,https://www.redfin.com/CA/Cupertino/22079-San-Fernando-Ct-95014/home/945575,,,N,Y,37.3174915,-122.0603737
PAST SALE,August-12-2022,Single Family Residential,10410 Oakville Ave,Cupertino,CA,95014,2000000,3,2.0,CUPERTINO,1392,6348,1959,,1437,,Sold,,,https://www.redfin.com/CA/Cupertino/10410-Oakville-Ave-95014/home/1472080,MLSListings,ML81902880,N,Y,37.3168371,-122.0187911
PAST SALE,,Single Family Residential,7326 Rainbow Dr,Cupertino,CA,95014,496000,4,4.0,,2036,1969,2005,,244,,,,,https://www.redfin.com/CA/Cupertino/7326-Rainbow-Dr-95014/home/1787250,,,N,Y,37.300192,-122.0330682
PAST SALE,November-24-2022,Single Family Residential,10629 Baxter Ave,,CA,94024,2595000,3,2.5,,,9583,1955,,,,Sold,,,https://www.redfin.com/CA/Los-Altos/10629-Baxter-Ave-94024/home/1487081,SBMLS,22-3807,N,Y,37.3320944,-122.0685863
PAST SALE,,Single Family Residential,1664 Mariani Dr,Sunnyvale,CA,94087,3950000,4,3.0,,2786,8417,1978,,1418,,,,,https://www.redfin.com/CA/Sunnyvale/1664-Mariani-Dr-94087/home/817000,,,N,Y,37.3389543,-122.0234097
PAST SALE,February-22-2022,Single Family Residential,12201 Via Roncole,Saratoga,CA,95070,4050000,4,3.0,SARATOGA,2600,13519,1968,,1558,,Sold,,,https://www.redfin.com/CA/Saratoga/12201-Via-Roncole-95070/home/1265541,MLSListings,ML81875448,N,Y,37.2921926,-122.0354882
PAST SALE,,Single Family Residential,7836 Jeanette Ct,Cupertino,CA,95014,3577000,5,3.0,,2494,6266,1986,,1434,,,,,https://www.redfin.com/CA/Cupertino/7836-Jeanette-Ct-95014/home/785657,,,N,Y,37.3093975,-122.0450124
PAST SALE,,Single Family Residential,19841 La Mar Dr,Cupertino,CA,95014,1750000,4,2.0,,1808,6440,1958,,968,,,,,https://www.redfin.com/CA/Cupertino/19841-La-Mar-Dr-95014/home/789465,,,N,Y,37.3180561,-122.0204787
PAST SALE,April-8-2022,Single Family Residential,7572 Kirwin Ln,Cupertino,CA,95014,2830000,3,2.0,CUPERTINO,1388,6448,1959,,2039,,Sold,,,https://www.redfin.com/CA/Cupertino/7572-Kirwin-Ln-95014/home/625161,MLSListings,ML81886170,N,Y,37.3130542,-122.037997
PAST SALE,January-3-2023,Single Family Residential,10531 N Portal Ave,Cupertino,CA,95014,1960000,4,2.5,CUPERTINO,1908,7884,1963,,1027,,Sold,,,https://www.redfin.com/CA/Cupertino/10531-N-Portal-Ave-95014/home/764445,MLSListings,ML81915486,N,Y,37.3307945,-122.0198406
PAST SALE,,Single Family Residential,10410 N Stelling Rd,Cupertino,CA,95014,4600000,5,5.0,,3769,9375,2020,,1220,,,,,https://www.redfin.com/CA/Cupertino/10410-N-Stelling-Rd-95014/home/1250266,,,N,Y,37.3288912,-122.041083
PAST SALE,July-22-2022,Single Family Residential,10616 Johnson Ave,Cupertino,CA,95014,1650000,3,2.0,CUPERTINO,1048,5150,1954,,1574,,Sold,,,https://www.redfin.com/CA/Cupertino/10616-Johnson-Ave-95014/home/582991,MLSListings,ML81901399,N,Y,37.3132695,-121.9994041
PAST SALE,May-16-2022,Single Family Residential,20711 Hanford Dr,Cupertino,CA,95014,4175000,5,3.5,CUPERTINO,3296,9775,1997,,1267,,Sold,,,https://www.redfin.com/CA/Cupertino/20711-Hanford-Dr-95014/home/900334,MLSListings,ML81891958,N,Y,37.3281119,-122.0361987
PAST SALE,,Single Family Residential,1045 Belvedere Ln,San Jose,CA,95129,2749000,3,3.0,,2173,7047,1957,,1265,,,,,https://www.redfin.com/CA/San-Jose/1045-Belvedere-Ln-95129/home/793689,,,N,Y,37.3085482,-122.0208083
PAST SALE,April-7-2022,Single Family Residential,10329 Colby Ave,Cupertino,CA,95014,2930000,3,2.0,CUPERTINO,1408,7587,1960,,2081,,Sold,,,https://www.redfin.com/CA/Cupertino/10329-Colby-Ave-95014/home/1662496,MLSListings,ML81883135,N,Y,37.3277508,-122.0189688
PAST SALE,November-29-2022,Single Family Residential,10264 Judy Ave,Cupertino,CA,95014,4900000,5,4.5,CUPERTINO,3727,9426,2022,,1315,,Sold,,,https://www.redfin.com/CA/Cupertino/10264-Judy-Ave-95014/home/1264241,MLSListings,ML81914008,N,Y,37.319082,-122.0051118
PAST SALE,September-30-2022,Single Family Residential,18980 Newsom Ave,Cupertino,CA,95014,1500000,3,1.0,CUPERTINO,897,5610,1955,,1672,,Sold,,,https://www.redfin.com/CA/Cupertino/18980-Newsom-Ave-95014/home/1659364,MLSListings,ML81898838,N,Y,37.3107137,-122.0046454
PAST SALE,,Single Family Residential,902 Sage Ct,Cupertino,CA,95014,2100000,3,2.0,,1388,7048,1960,,1513,,,,,https://www.redfin.com/CA/Cupertino/902-Sage-Ct-95014/home/1369636,,,N,Y,37.3125085,-122.0421708
PAST SALE,,Single Family Residential,1693 S Mary Ave,Sunnyvale,CA,94087,2580000,3,2.0,,1775,9723,1963,,1454,,,,,https://www.redfin.com/CA/Sunnyvale/1693-S-Mary-Ave-94087/home/945391,,,N,Y,37.3377417,-122.0503847
PAST SALE,May-16-2022,Single Family Residential,1037 Cynthia Ln,San Jose,CA,95129,2710000,3,2.0,SAN JOSE,1240,7072,1956,,2185,,Sold,,,https://www.redfin.com/CA/San-Jose/1037-Cynthia-Ln-95129/home/791385,MLSListings,ML81891911,N,Y,37.3085647,-122.0249862
PAST SALE,December-12-2022,Single Family Residential,10191 Vista Dr,Cupertino,CA,95014,2399998,5,2.0,CUPERTINO,2220,8506,1908,,1081,,Sold,,,https://www.redfin.com/CA/Cupertino/10191-Vista-Dr-95014/home/1566815,MLSListings,ML81914736,N,Y,37.3256854,-122.0278727
PAST SALE,July-21-2022,Single Family Residential,10567 John Way,Cupertino,CA,95014,2650000,3,2.5,CUPERTINO,1511,9044,1951,,1754,,Sold,,,https://www.redfin.com/CA/Cupertino/10567-John-Way-95014/home/733262,MLSListings,ML81901058,N,Y,37.3146078,-122.0353994
PAST SALE,March-14-2022,Single Family Residential,10755 Minette Dr,Cupertino,CA,95014,2025000,3,1.0,CUPERTINO,1048,5610,1955,,1932,,Sold,,,https://www.redfin.com/CA/Cupertino/10755-Minette-Dr-95014/home/1155660,MLSListings,ML81879833,N,Y,37.312376,-122.0028687
PAST SALE,March-16-2022,Single Family Residential,7675 Shadowhill Ln,Cupertino,CA,95014,2650000,3,2.0,CUPERTINO,1115,6802,1963,,2377,,Sold,,,https://www.redfin.com/CA/Cupertino/7675-Shadowhill-Ln-95014/home/786445,MLSListings,ML81882749,N,Y,37.3016581,-122.0406612
PAST SALE,,Single Family Residential,10038 Bret Ave,Cupertino,CA,95014,2500000,,3.0,,2369,9577,1948,,1055,,,,,https://www.redfin.com/CA/Cupertino/10038-Bret-Ave-95014/home/795309,,,N,Y,37.3223695,-122.0041124
PAST SALE,,Single Family Residential,11500 Bianchini Ln,Cupertino,CA,95014,2265000,3,3.0,,1788,1914,2005,,1267,,,,,https://www.redfin.com/CA/Cupertino/11500-Bianchini-Ln-95014/home/1693386,,,N,Y,37.3002652,-122.0344447
PAST SALE,April-8-2022,Single Family Residential,10300 Stern Ave,Cupertino,CA,95014,1900000,2,1.0,CUPERTINO,814,4947,1952,,2334,,Sold,,,https://www.redfin.com/CA/Cupertino/10300-Stern-Ave-95014/home/1337299,MLSListings,ML81883528,N,Y,37.3187331,-122.0030908
PAST SALE,December-8-2022,Single Family Residential,18831 Barnhart Ave,Cupertino,CA,95014,1700000,2,1.0,CUPERTINO,1070,5355,1953,,1589,,Sold,,,https://www.redfin.com/CA/Cupertino/18831-Barnhart-Ave-95014/home/650224,MLSListings,ML81914546,N,Y,37.3156888,-122.0012253
PAST SALE,February-4-2022,Single Family Residential,1749 Calgary Dr,Sunnyvale,CA,94087,2515000,3,2.0,SUNNYVALE,1392,6604,1958,,1807,,Sold,,,https://www.redfin.com/CA/Sunnyvale/1749-Calgary-Dr-94087/home/1776046,MLSListings,ML81873126,N,Y,37.3351785,-122.057133
PAST SALE,February-14-2022,Single Family Residential,6625 Clifford Dr,Cupertino,CA,95014,2400000,3,2.0,CUPERTINO,1080,6065,1958,,2222,,Sold,,,https://www.redfin.com/CA/Cupertino/6625-Clifford-Dr-95014/home/1663134,MLSListings,ML81875581,N,Y,37.3142685,-122.0195239
PAST SALE,August-26-2022,Single Family Residential,10552 Gascoigne Dr,Cupertino,CA,95014,1768000,3,1.0,CUPERTINO,1048,5329,1954,,1687,,Sold,,,https://www.redfin.com/CA/Cupertino/10552-Gascoigne-Dr-95014/home/1365364,MLSListings,ML81901631,N,Y,37.3143632,-121.9978939
PAST SALE,March-28-2022,Single Family Residential,10189 Macadam Ln,Cupertino,CA,95014,2850000,3,2.5,CUPERTINO,1716,2289,1997,,1661,95,Sold,,,https://www.redfin.com/CA/Cupertino/10189-Macadam-Ln-95014/home/1250714,MLSListings,ML81880431,N,Y,37.3206021,-122.0285388
PAST SALE,October-24-2022,Single Family Residential,1219 Belknap Ct,Cupertino,CA,95014,2285000,3,2.0,CUPERTINO,1744,7323,1963,,1310,,Sold,,,https://www.redfin.com/CA/Cupertino/1219-Belknap-Ct-95014/home/1792745,MLSListings,ML81910065,N,Y,37.3018795,-122.0472102
PAST SALE,January-28-2022,Single Family Residential,19161 Tilson Ave,Cupertino,CA,95014,2510000,3,1.0,Cupertino,1284,10219,1949,,1955,,Sold,,,https://www.redfin.com/CA/Cupertino/19161-Tilson-Ave-95014/home/1535654,MetroList,221148560,N,Y,37.3170164,-122.0076657
PAST SALE,May-12-2022,Single Family Residential,6179 Shadygrove Dr,Cupertino,CA,95014,3071000,4,2.0,CUPERTINO,1516,6000,1961,,2026,,Sold,,,https://www.redfin.com/CA/Cupertino/6179-Shadygrove-Dr-95014/home/1550417,MLSListings,ML81887720,N,Y,37.314487,-122.0108857
PAST SALE,May-3-2022,Single Family Residential,1011 Huntingdon Dr,San Jose,CA,95129,3033000,3,2.0,SAN JOSE,1606,6406,1956,,1889,,Sold,,,https://www.redfin.com/CA/San-Jose/1011-Huntingdon-Dr-95129/home/1622993,MLSListings,ML81883435,N,Y,37.3091683,-122.0016695
PAST SALE,September-21-2022,Single Family Residential,1781 Linnet Ln,Sunnyvale,CA,94087,2400000,4,2.0,SUNNYVALE,2224,6480,1962,,1079,37,Sold,,,https://www.redfin.com/CA/Sunnyvale/1781-Linnet-Ln-94087/home/1515744,MLSListings,ML81905329,N,Y,37.3341033,-122.0167704
PAST SALE,August-29-2022,Single Family Residential,11091 Santa Teresa Dr,Cupertino,CA,95014,3130000,3,2.0,CUPERTINO,1766,7560,1962,,1772,,Sold,,,https://www.redfin.com/CA/Cupertino/11091-Santa-Teresa-Dr-95014/home/1431077,MLSListings,ML81901563,N,Y,37.3072816,-122.0569998
PAST SALE,November-30-2022,Single Family Residential,877 BETLIN,Cupertino,CA,95014,2168000,4,3.0,Cupertino,1472,6003,1958,,1473,,Sold,,,https://www.redfin.com/CA/Cupertino/877-Betlin-Ave-95014/home/1227669,"bridgeMLS, Bay East AOR, or Contra Costa AOR",41012492,N,Y,37.3132212,-122.0224993
PAST SALE,April-11-2022,Single Family Residential,1701 Heron Ave,Sunnyvale,CA,94087,3000000,4,3.5,SUNNYVALE,2251,8047,1962,,1333,,Sold,,,https://www.redfin.com/CA/Sunnyvale/1701-Heron-Ave-94087/home/1213610,MLSListings,ML81881448,N,Y,37.3374123,-122.0185922
PAST SALE,February-22-2022,Single Family Residential,887 E Estates Dr,Cupertino,CA,95014,2750000,3,2.0,CUPERTINO,1080,7257,1958,,2546,,Sold,,,https://www.redfin.com/CA/Cupertino/887-E-Estates-Dr-95014/home/788777,MLSListings,ML81875260,N,Y,37.3128039,-122.0201456
PAST SALE,August-12-2022,Single Family Residential,7620 Normandy Way,Cupertino,CA,95014,2486000,3,2.0,CUPERTINO,1551,6634,1960,,1603,,Sold,,,https://www.redfin.com/CA/Cupertino/7620-Normandy-Way-95014/home/788851,MLSListings,ML81900824,N,Y,37.2981719,-122.0390183
PAST SALE,June-29-2022,Single Family Residential,1029 Corvette Dr,San Jose,CA,95129,2830000,4,2.0,SAN JOSE,1820,6300,1958,,1555,,Sold,,,https://www.redfin.com/CA/San-Jose/1029-Corvette-Dr-95129/home/945886,MLSListings,ML81893930,N,Y,37.3088766,-122.0173478
PAST SALE,February-9-2022,Single Family Residential,10319 Brittany Ct,Cupertino,CA,95014,3450000,4,3.0,CUPERTINO,1782,8766,1964,,1936,,Sold,,,https://www.redfin.com/CA/Cupertino/10319-Brittany-Ct-95014/home/790641,MLSListings,ML81873144,N,Y,37.3180861,-122.0266071
PAST SALE,,Single Family Residential,1009 Avondale St,San Jose,CA,95129,3350000,4,2.0,,1168,10170,1950,,2868,,,,,https://www.redfin.com/CA/San-Jose/1009-Avondale-St-95129/home/1764784,,,N,Y,37.3107859,-122.0292049
PAST SALE,March-14-2022,Single Family Residential,799 Stendhal Ln,Cupertino,CA,95014,2950000,4,2.0,CUPERTINO,1516,6025,1961,,1946,,Sold,,,https://www.redfin.com/CA/Cupertino/799-Stendhal-Ln-95014/home/664737,MLSListings,ML81877877,N,Y,37.3143272,-122.0126623
PAST SALE,April-22-2022,Single Family Residential,19764 La Mar Dr,Cupertino,CA,95014,3100000,3,2.0,CUPERTINO,1374,7464,1958,,2256,,Sold,,,https://www.redfin.com/CA/Cupertino/19764-La-Mar-Dr-95014/home/790542,MLSListings,ML81879007,N,Y,37.3174342,-122.018991
PAST SALE,August-5-2022,Single Family Residential,10872 Canyon Vista Dr,Cupertino,CA,95014,1838000,2,2.0,CUPERTINO,2119,3788,1976,,867,920,Sold,,,https://www.redfin.com/CA/Cupertino/10872-Canyon-Vista-Dr-95014/home/1465955,MLSListings,ML81900025,N,Y,37.3099323,-122.0678094
PAST SALE,May-20-2022,Single Family Residential,1029 Miller Ave,San Jose,CA,95129,2420000,4,2.0,San Jose,1273,6354,1959,,1901,,Sold,,,https://www.redfin.com/CA/San-Jose/1029-Miller-Ave-95129/home/793666,San Francisco MLS,422642877,N,Y,37.3083166,-122.0145942
PAST SALE,June-30-2022,Single Family Residential,7529 Peach Blossom Dr,Cupertino,CA,95014,2400000,4,2.0,CUPERTINO,1591,6000,1960,,1508,,Sold,,,https://www.redfin.com/CA/Cupertino/7529-Peach-Blossom-Dr-95014/home/972621,MLSListings,ML81893523,N,Y,37.2994292,-122.0368425
PAST SALE,May-24-2022,Single Family Residential,22248 Hammond Way,Cupertino,CA,95014,5750000,4,4.0,CUPERTINO,4392,30733,2000,,1309,,Sold,,,https://www.redfin.com/CA/Cupertino/22248-Hammond-Way-95014/home/1503941,MLSListings,ML81884523,N,Y,37.3311177,-122.082191
PAST SALE,March-9-2022,Single Family Residential,21743 Alcazar Ave,Cupertino,CA,95014,2300000,3,2.0,CUPERTINO,1539,7560,1965,,1494,,Sold,,,https://www.redfin.com/CA/Cupertino/21743-Alcazar-Ave-95014/home/783441,MLSListings,ML81879264,N,Y,37.3179024,-122.0548466
PAST SALE,June-16-2022,Single Family Residential,10421 N Portal Ave,Cupertino,CA,95014,3300000,4,2.5,CUPERTINO,1769,7490,1961,,1865,,Sold,,,https://www.redfin.com/CA/Cupertino/10421-N-Portal-Ave-95014/home/764431,MLSListings,ML81891780,N,Y,37.3291208,-122.019968
PAST SALE,April-13-2022,Single Family Residential,6839 W Riverside Way,San Jose,CA,95129,2780000,6,3.0,SAN JOSE,2308,8053,1956,,1205,,Sold,,,https://www.redfin.com/CA/San-Jose/6839-W-Riverside-Way-95129/home/1614381,MLSListings,ML81883462,N,Y,37.3095086,-122.0240981
PAST SALE,March-9-2022,Single Family Residential,1668 Hummingbird Ln,Sunnyvale,CA,94087,2820000,3,2.0,SUNNYVALE,1565,6024,1960,,1802,,Sold,,,https://www.redfin.com/CA/Sunnyvale/1668-Hummingbird-Ln-94087/home/760257,MLSListings,ML81875799,N,Y,37.3389623,-122.0166594
PAST SALE,January-31-2022,Single Family Residential,1050 W Riverside Way,San Jose,CA,95129,3410000,4,3.0,SAN JOSE,1970,8980,1956,,1731,,Sold,,,https://www.redfin.com/CA/San-Jose/1050-W-Riverside-Way-95129/home/1581468,MLSListings,ML81871648,N,Y,37.3080382,-122.021811
PAST SALE,July-13-2022,Single Family Residential,10214 S Portal Ave,Cupertino,CA,95014,2688888,4,3.0,CUPERTINO,2340,7575,1967,,1149,,Sold,,,https://www.redfin.com/CA/Cupertino/10214-S-Portal-Ave-95014/home/1293916,MLSListings,ML81897777,N,Y,37.320379,-122.0195017
PAST SALE,October-20-2022,Single Family Residential,10391 Castine Ave,Cupertino,CA,95014,3200000,4,2.0,CUPERTINO,1890,8136,1968,,1693,,Sold,,,https://www.redfin.com/CA/Cupertino/10391-Castine-Ave-95014/home/1804977,MLSListings,ML81907370,N,Y,37.3284794,-122.0466774
PAST SALE,February-25-2022,Single Family Residential,812 Shetland Pl,Sunnyvale,CA,94087,2035000,4,2.0,Sunnyvale,1828,6016,1962,,1113,,Sold,,,https://www.redfin.com/CA/Sunnyvale/812-Shetland-Pl-94087/home/1646203,MetroList,222004179,N,Y,37.333533,-122.0190354
PAST SALE,April-9-2022,Single Family Residential,10780 Brookwell Dr,Cupertino,CA,95014,3125000,3,2.0,CUPERTINO,1697,6608,1955,,1841,,Sold,,,https://www.redfin.com/CA/Cupertino/10780-Brookwell-Dr-95014/home/1141307,MLSListings,ML81880211,N,Y,37.3116253,-122.0189465
PAST SALE,October-24-2022,Single Family Residential,10403 Denison Ave,Cupertino,CA,95014,2590000,3,2.0,CUPERTINO,1408,7504,1960,,1839,,Sold,,,https://www.redfin.com/CA/Cupertino/10403-Denison-Ave-95014/home/1631586,MLSListings,ML81907428,N,Y,37.32892,-122.0180805
PAST SALE,August-30-2022,Single Family Residential,20422 Via Palamos,Cupertino,CA,95014,2270000,4,2.5,CUPERTINO,2157,4791,1995,,1052,136,Sold,,,https://www.redfin.com/CA/Cupertino/20422-Via-Palamos-95014/home/764899,MLSListings,ML81901951,N,Y,37.3353427,-122.0307147
PAST SALE,July-12-2022,Single Family Residential,10643 Gascoigne Dr,Cupertino,CA,95014,2050000,3,2.0,CUPERTINO,1249,5508,1955,,1641,,Sold,,,https://www.redfin.com/CA/Cupertino/10643-Gascoigne-Dr-95014/home/1365391,MLSListings,ML81895879,N,Y,37.3128938,-121.9994041
PAST SALE,,Single Family Residential,7535 Kirwin Ln,Cupertino,CA,95014,3010000,3,2.0,,1388,6800,1959,,2169,,,,,https://www.redfin.com/CA/Cupertino/7535-Kirwin-Ln-95014/home/1567366,,,N,Y,37.3135554,-122.0367093
PAST SALE,April-14-2022,Single Family Residential,1661 Lachine Dr,Sunnyvale,CA,94087,3551000,4,2.0,Sunnyvale,1930,8176,1960,,1840,,Sold,,,https://www.redfin.com/CA/Sunnyvale/1661-Lachine-Dr-94087/home/1476306,"bridgeMLS, Bay East AOR, or Contra Costa AOR",40984167,N,Y,37.3389922,-122.0454342
PAST SALE,November-3-2022,Single Family Residential,6376 Bollinger Rd,San Jose,CA,95129,1935000,3,2.0,SAN JOSE,1133,6636,1959,,1708,,Sold,,,https://www.redfin.com/CA/San-Jose/6376-Bollinger-Rd-95129/home/794290,MLSListings,ML81908844,N,Y,37.3100248,-122.0149717
PAST SALE,August-24-2022,Single Family Residential,21618 Flintshire St,Cupertino,CA,95014,3380000,4,2.5,CUPERTINO,2055,7704,1968,,1645,,Sold,,,https://www.redfin.com/CA/Cupertino/21618-Flintshire-St-95014/home/781868,MLSListings,ML81900919,N,Y,37.3057782,-122.052649
PAST SALE,December-20-2022,Single Family Residential,3897 Hancock Dr,Santa Clara,CA,95051,2428000,4,3.0,SANTA CLARA,3130,9215,1959,,776,,Sold,,,https://www.redfin.com/CA/Santa-Clara/3897-Hancock-Dr-95051/home/1336471,MLSListings,ML81913257,N,Y,37.3281056,-122.0040236
PAST SALE,April-1-2022,Single Family Residential,10491 Scenic Blvd,Cupertino,CA,95014,3400000,3,2.0,CUPERTINO,1628,15299,1956,,2088,,Sold,,,https://www.redfin.com/CA/Cupertino/10491-Scenic-Blvd-95014/home/687358,MLSListings,ML81878520,N,Y,37.3153609,-122.0640413
PAST SALE,January-13-2023,Single Family Residential,10511 Cypress Dr,Cupertino,CA,95014,2450000,3,2.0,CUPERTINO,1568,7499,1961,,1563,,Sold,,,https://www.redfin.com/CA/Cupertino/10511-Cypress-Dr-95014/home/1213586,MLSListings,ML81913490,N,Y,37.330538,-122.0217444
PAST SALE,November-16-2022,Single Family Residential,1586 Poppy Way,Cupertino,CA,95014,3460000,6,4.0,CUPERTINO,2540,6321,1964,,1362,,Sold,,,https://www.redfin.com/CA/Cupertino/1586-Poppy-Way-95014/home/746337,MLSListings,ML81908975,N,Y,37.295536,-122.0348666
PAST SALE,November-16-2022,Single Family Residential,10711 Gascoigne Dr,Cupertino,CA,95014,3225000,5,4.0,CUPERTINO,2395,5775,2015,,1347,,Sold,,,https://www.redfin.com/CA/Cupertino/10711-Gascoigne-Dr-95014/home/692878,MLSListings,ML81910330,N,Y,37.3120066,-122.0006034
PAST SALE,May-6-2022,Single Family Residential,10425 FARALLONE Dr,Cupertino,CA,95014,3200000,3,2.0,CUPERTINO,1413,7005,1959,,2265,,Sold,,,https://www.redfin.com/CA/Cupertino/10425-Farallone-Dr-95014/home/1141371,MLSListings,ML81884598,N,Y,37.316391,-122.0274952
PAST SALE,April-27-2022,Single Family Residential,2266 Sierra Ventura Dr,Los Altos,CA,94024,3900000,4,2.5,LOS ALTOS,2182,28881,1963,,1787,,Sold,,,https://www.redfin.com/CA/Los-Altos/2266-Sierra-Ventura-Dr-94024/home/1331849,MLSListings,ML81884791,N,Y,37.3359231,-122.0797055
PAST SALE,March-4-2022,Single Family Residential,548 Hubbard Ave,Santa Clara,CA,95051,3051000,4,2.0,SANTA CLARA,1794,6513,1959,,1701,,Sold,,,https://www.redfin.com/CA/Santa-Clara/548-Hubbard-Ave-95051/home/762642,MLSListings,ML81874219,N,Y,37.3316906,-122.0031574
PAST SALE,June-10-2022,Single Family Residential,7646 Berland Ct,Cupertino,CA,95014,4125000,4,3.0,CUPERTINO,2530,6667,1986,,1630,,Sold,,,https://www.redfin.com/CA/Cupertino/7646-Berland-Ct-95014/home/1418200,MLSListings,ML81890220,N,Y,37.3020697,-122.0401061
PAST SALE,August-30-2022,Single Family Residential,6590 Capri Way,San Jose,CA,95129,2450000,4,2.0,SAN JOSE,1519,7259,1957,,1613,,Sold,,,https://www.redfin.com/CA/San-Jose/6590-Capri-Way-95129/home/1726674,MLSListings,ML81901964,N,Y,37.3080733,-122.0200124
PAST SALE,September-29-2022,Single Family Residential,10810 Farallone Dr,Cupertino,CA,95014,2375000,4,3.0,CUPERTINO,1793,8888,1962,,1325,,Sold,,,https://www.redfin.com/CA/Cupertino/10810-Farallone-Dr-95014/home/1326103,MLSListings,ML81904910,N,Y,37.3110178,-122.0263185
PAST SALE,November-9-2022,Single Family Residential,7568 Waterford Dr,Cupertino,CA,95014,2640000,3,2.0,CUPERTINO,1479,6420,1960,,1785,,Sold,,,https://www.redfin.com/CA/Cupertino/7568-Waterford-Dr-95014/home/787465,MLSListings,ML81909485,N,Y,37.2966797,-122.0384854
PAST SALE,March-1-2022,Single Family Residential,22370 PALM Ave,Cupertino,CA,95014,4900000,5,3.0,CUPERTINO,3585,10016,1994,,1367,,Sold,,,https://www.redfin.com/CA/Cupertino/22370-Palm-Ave-95014/home/1443606,MLSListings,ML81875379,N,Y,37.3165197,-122.0663889
PAST SALE,March-1-2022,Single Family Residential,10111 N Foothill Blvd,Cupertino,CA,95014,2700000,3,3.5,Cupertino,2670,3603,2017,,1011,389,Sold,,,https://www.redfin.com/CA/Cupertino/10111-N-Foothill-Blvd-95014/home/143042108,"bridgeMLS, Bay East AOR, or Contra Costa AOR",40977757,N,Y,37.3235572,-122.0691346
PAST SALE,October-3-2022,Single Family Residential,7544 Fallenleaf Ln,Cupertino,CA,95014,3010000,3,2.0,CUPERTINO,2015,9844,1961,,1494,,Sold,,,https://www.redfin.com/CA/Cupertino/7544-Fallenleaf-Ln-95014/home/784677,MLSListings,ML81905412,N,Y,37.3081015,-122.0377306
PAST SALE,January-11-2023,Single Family Residential,10401 Lindsay Ave,Cupertino,CA,95014,2421000,3,2.0,Cupertino,1392,8041,1959,,1739,,Sold,,,https://www.redfin.com/CA/Cupertino/10401-Lindsay-Ave-95014/home/1214315,MetroList,222138199,N,Y,37.3169202,-122.020945
PAST SALE,January-3-2023,Single Family Residential,7958 Pumpkin Dr,Cupertino,CA,95014,2500000,4,2.0,CUPERTINO,1677,6000,1963,,1491,,Sold,,,https://www.redfin.com/CA/Cupertino/7958-Pumpkin-Dr-95014/home/1541072,MLSListings,ML81909766,N,Y,37.3102195,-122.048456
PAST SALE,,Single Family Residential,20570 Sunrise Dr,Cupertino,CA,95014,3385000,4,2.0,,1570,10175,1951,,2156,,,,,https://www.redfin.com/CA/Cupertino/20570-Sunrise-Dr-95014/home/1790350,,,N,Y,37.3199765,-122.0336011
PAST SALE,March-2-2022,Single Family Residential,1343 Primrose Way,Cupertino,CA,95014,3220000,4,2.0,CUPERTINO,1591,6000,1960,,2024,,Sold,,,https://www.redfin.com/CA/Cupertino/1343-Primrose-Way-95014/home/1418208,MLSListings,ML81875633,N,Y,37.2988654,-122.0362209
PAST SALE,May-18-2022,Single Family Residential,10420 Oakville Ave,Cupertino,CA,95014,3050000,3,2.0,CUPERTINO,1392,6332,1959,,2191,,Sold,,,https://www.redfin.com/CA/Cupertino/10420-Oakville-Ave-95014/home/790544,MLSListings,ML81886356,N,Y,37.3167084,-122.0189688
PAST SALE,September-20-2022,Single Family Residential,10503 Rampart Ave,Cupertino,CA,95014,2480000,3,2.0,CUPERTINO,1392,6335,1959,,1782,,Sold,,,https://www.redfin.com/CA/Cupertino/10503-Rampart-Ave-95014/home/790554,MLSListings,ML81903695,N,Y,37.3154521,-122.0179029
PAST SALE,June-16-2022,Single Family Residential,10604 La Roda Dr,Cupertino,CA,95014,3100000,3,2.0,CUPERTINO,1543,7679,1959,,2009,,Sold,,,https://www.redfin.com/CA/Cupertino/10604-La-Roda-Dr-95014/home/790700,MLSListings,ML81888707,N,Y,37.3143461,-122.023876
PAST SALE,April-14-2022,Single Family Residential,10491 Wunderlich Dr,Cupertino,CA,95014,2935000,3,2.5,CUPERTINO,1679,5686,1953,,1748,,Sold,,,https://www.redfin.com/CA/Cupertino/10491-Wunderlich-Dr-95014/home/1200994,MLSListings,ML81879879,N,Y,37.3156818,-122.0009366
PAST SALE,April-13-2022,Vacant Land,18745 Loree Ave,Cupertino,CA,95014,2650000,,,CUPERTINO,,5549,,,,,Sold,,,https://www.redfin.com/CA/Cupertino/18745-Loree-Ave-95014/home/1493947,MLSListings,ML81878666,N,Y,37.320115,-121.9996262
PAST SALE,May-4-2022,Single Family Residential,7974 Pumpkin Dr,Cupertino,CA,95014,3238000,3,2.0,CUPERTINO,1677,6019,1963,,1931,,Sold,,,https://www.redfin.com/CA/Cupertino/7974-Pumpkin-Dr-95014/home/785284,MLSListings,ML81883568,N,Y,37.3102344,-122.0488974
PAST SALE,March-11-2022,Single Family Residential,1638 Canary Dr,Sunnyvale,CA,94087,4470000,5,3.0,SUNNYVALE,3343,8501,1986,,1337,,Sold,,,https://www.redfin.com/CA/Sunnyvale/1638-Canary-Dr-94087/home/1127779,MLSListings,ML81876419,N,Y,37.3394976,-122.0275841
PAST SALE,March-21-2022,Single Family Residential,22344 Mcclellan Rd,Cupertino,CA,95014,3400000,5,3.5,CUPERTINO,3204,6915,1990,,1061,,Sold,,,https://www.redfin.com/CA/Cupertino/22344-McClellan-Rd-95014/home/1297961,MLSListings,ML81874066,N,Y,37.313870033,-122.0655588
PAST SALE,,Single Family Residential,10825 W Estates Dr,Cupertino,CA,95014,2570000,3,2.0,,1618,6727,1955,,1588,,,,,https://www.redfin.com/CA/Cupertino/10825-W-Estates-Dr-95014/home/1475988,,,N,Y,37.3104281,-122.0225437
PAST SALE,May-19-2022,Single Family Residential,1694 Jamestown Dr,Cupertino,CA,95014,3850000,4,3.0,CUPERTINO,2538,8314,1989,,1517,,Sold,,,https://www.redfin.com/CA/Cupertino/1694-Jamestown-Dr-95014/home/847704,MLSListings,ML81885016,N,Y,37.2941119,-122.0340451
PAST SALE,February-11-2022,Single Family Residential,6128 Willowgrove Ln,Cupertino,CA,95014,2920000,4,2.0,CUPERTINO,1585,7141,1960,,1842,,Sold,,,https://www.redfin.com/CA/Cupertino/6128-Willowgrove-Ln-95014/home/801626,MLSListings,ML81874172,N,Y,37.3112006,-122.0098864
PAST SALE,February-17-2022,Single Family Residential,10700 Morengo Dr,Cupertino,CA,95014,3875000,5,4.5,CUPERTINO,2363,6300,2018,,1640,,Sold,,,https://www.redfin.com/CA/Cupertino/10700-Morengo-Dr-95014/home/1326227,MLSListings,ML81874118,N,Y,37.3126793,-122.0046676
PAST SALE,February-23-2022,Single Family Residential,358 Dawson Dr,Santa Clara,CA,95051,2930000,3,2.0,SANTA CLARA,1508,6810,1958,,1943,,Sold,,,https://www.redfin.com/CA/Santa-Clara/358-Dawson-Dr-95051/home/1140133,MLSListings,ML81874991,N,Y,37.329251,-122.0037127
PAST SALE,February-24-2022,Single Family Residential,11680 Timber Spring Ct,Cupertino,CA,95014,3750000,4,3.0,CUPERTINO,2263,5878,1989,,1657,300,Sold,,,https://www.redfin.com/CA/Cupertino/11680-Timber-Spring-Ct-95014/home/700620,MLSListings,ML81874850,N,Y,37.2979235,-122.0478096
PAST SALE,March-1-2022,Single Family Residential,11232 Monterey Ct,Cupertino,CA,95014,3888000,4,3.0,CUPERTINO,2187,7500,1962,,1778,,Sold,,,https://www.redfin.com/CA/Cupertino/11232-Monterey-Ct-95014/home/1369577,MLSListings,ML81875671,N,Y,37.304806,-122.0536923
PAST SALE,March-4-2022,Single Family Residential,10510 Creston Dr,Los Altos,CA,94024,3520000,3,2.0,LOS ALTOS,1326,14457,1955,,2655,,Sold,,,https://www.redfin.com/CA/Los-Altos/10510-Creston-Dr-94024/home/773215,MLSListings,ML81876006,N,Y,37.3302416,-122.0611728
PAST SALE,February-17-2022,Single Family Residential,22399 Creston Dr,Los Altos,CA,94024,3500000,3,2.5,LOS ALTOS,1905,13056,1954,,1837,,Sold,,,https://www.redfin.com/CA/Los-Altos/22399-Creston-Dr-94024/home/1030719,MLSListings,ML81872989,N,Y,37.333339,-122.066522
PAST SALE,January-6-2023,Single Family Residential,21341 Milford Dr,Cupertino,CA,95014,2750000,3,2.0,CUPERTINO,1666,7490,1968,,1651,,Sold,,,https://www.redfin.com/CA/Cupertino/21341-Milford-Dr-95014/home/1048769,MLSListings,ML81913992,N,Y,37.330058,-122.047854
PAST SALE,April-29-2022,Single Family Residential,1106 Lorne Way,Sunnyvale,CA,94087,3128500,4,2.0,SUNNYVALE,1740,6359,1973,,1798,,Sold,,,https://www.redfin.com/CA/Sunnyvale/1106-Lorne-Way-94087/home/1815054,MLSListings,ML81883577,N,Y,37.3383763,-122.0018471
PAST SALE,February-18-2022,Single Family Residential,1110 Lorne Way,Sunnyvale,CA,94087,2825000,4,2.0,SUNNYVALE,1740,6873,1973,,1624,,Sold,,,https://www.redfin.com/CA/Sunnyvale/1110-Lorne-Way-94087/home/726375,MLSListings,ML81876386,N,Y,37.3384553,-122.0016473
PAST SALE,March-7-2022,Single Family Residential,10212 Parlett Pl,Cupertino,CA,95014,3823000,4,2.0,CUPERTINO,2108,6872,1977,,1814,,Sold,,,https://www.redfin.com/CA/Cupertino/10212-Parlett-Pl-95014/home/1739724,MLSListings,ML81876491,N,Y,37.3260824,-122.0312254
PAST SALE,September-23-2022,Single Family Residential,10550 Ainsworth Dr,Los Altos,CA,94024,2850000,4,3.0,LOS ALTOS,1933,11181,1955,,1474,,Sold,,,https://www.redfin.com/CA/Los-Altos/10550-Ainsworth-Dr-94024/home/551066,MLSListings,ML81905842,N,Y,37.3308624,-122.063903
PAST SALE,October-27-2022,Single Family Residential,10488 Vista Knoll Blvd,Cupertino,CA,95014,2550000,4,2.5,CUPERTINO,2424,10576,1968,,1052,,Sold,,,https://www.redfin.com/CA/Cupertino/10488-Vista-Knoll-Blvd-95014/home/773500,MLSListings,ML81907886,N,Y,37.3299451,-122.0684309
PAST SALE,November-10-2022,Single Family Residential,21133 Christensen Dr,Cupertino,CA,95014,3218888,4,2.5,CUPERTINO,2127,8013,1978,,1513,,Sold,,,https://www.redfin.com/CA/Cupertino/21133-Christensen-Dr-95014/home/1450827,MLSListings,ML81909380,N,Y,37.3268764,-122.0448348
PAST SALE,April-22-2022,Single Family Residential,21412 Elm Ct,Cupertino,CA,95014,3800000,4,3.0,CUPERTINO,2054,10656,1968,,1850,,Sold,,,https://www.redfin.com/CA/Cupertino/21412-Elm-Ct-95014/home/713611,MLSListings,ML81882584,N,Y,37.3128755,-122.0489196
PAST SALE,May-20-2022,Single Family Residential,10640 Johansen Dr,Cupertino,CA,95014,3100000,4,2.5,CUPERTINO,2301,6344,1953,,1347,,Sold,,,https://www.redfin.com/CA/Cupertino/10640-Johansen-Dr-95014/home/796846,MLSListings,ML81887535,N,Y,37.3135728,-122.0063776
PAST SALE,July-18-2022,Single Family Residential,10186 Mann Dr,Cupertino,CA,95014,2898000,4,3.0,CUPERTINO,2246,10000,1955,,1290,,Sold,,,https://www.redfin.com/CA/Cupertino/10186-Mann-Dr-95014/home/1087883,MLSListings,ML81895293,N,Y,37.3255413,-122.0559121
PAST SALE,March-30-2022,Single Family Residential,10218 Mira Vista Rd,Cupertino,CA,95014,3950000,4,2.5,CUPERTINO,2071,10334,1954,,1907,,Sold,,,https://www.redfin.com/CA/Cupertino/10218-Mira-Vista-Rd-95014/home/1382775,MLSListings,ML81879348,N,Y,37.3200828,-122.0647242
PAST SALE,June-30-2022,Single Family Residential,821 Logan Ct,Sunnyvale,CA,94087,3480000,4,2.0,SUNNYVALE,2122,11712,1959,,1640,,Sold,,,https://www.redfin.com/CA/Sunnyvale/821-Logan-Ct-94087/home/769751,MLSListings,ML81892731,N,Y,37.3390796,-122.0473212
PAST SALE,June-6-2022,Single Family Residential,21426 Rumford Dr,Cupertino,CA,95014,3500000,4,2.5,CUPERTINO,2146,7503,1968,,1631,,Sold,,,https://www.redfin.com/CA/Cupertino/21426-Rumford-Dr-95014/home/774226,MLSListings,ML81888330,N,Y,37.3278134,-122.0493191
PAST SALE,June-10-2022,Single Family Residential,1111 Derbyshire Dr,Cupertino,CA,95014,3502000,4,3.0,CUPERTINO,2134,6000,2008,,1641,,Sold,,,https://www.redfin.com/CA/Cupertino/1111-Derbyshire-Dr-95014/home/954901,MLSListings,ML81890292,N,Y,37.3055202,-122.0435472
PAST SALE,July-27-2022,Single Family Residential,8019 Pumpkin Ct,Cupertino,CA,95014,2650000,3,2.0,CUPERTINO,1513,7000,1963,,1751,,Sold,,,https://www.redfin.com/CA/Cupertino/8019-Pumpkin-Ct-95014/home/1140839,MLSListings,ML81897227,N,Y,37.3105941,-122.0496965
PAST SALE,July-20-2022,Single Family Residential,1210 Stafford Dr,Cupertino,CA,95014,3110000,4,2.0,CUPERTINO,1798,8100,1963,,1730,,Sold,,,https://www.redfin.com/CA/Cupertino/1210-Stafford-Dr-95014/home/1202534,MLSListings,ML81896888,N,Y,37.3019298,-122.0490972
PAST SALE,November-18-2022,Single Family Residential,20669 Scofield Dr,Cupertino,CA,95014,2612000,4,2.0,CUPERTINO,1876,11211,1950,,1392,,Sold,,,https://www.redfin.com/CA/Cupertino/20669-Scofield-Dr-95014/home/784034,MLSListings,ML81910256,N,Y,37.3213185,-122.0353772
PAST SALE,May-13-2022,Single Family Residential,22266 Hartman Dr,Cupertino,CA,95014,4100000,5,3.0,CUPERTINO,2847,11243,1967,,1440,,Sold,,,https://www.redfin.com/CA/Cupertino/22266-Hartman-Dr-95014/home/996037,MLSListings,ML81885522,N,Y,37.3302939,-122.0647908
PAST SALE,April-25-2022,Single Family Residential,10140 Firwood Dr,Cupertino,CA,95014,1900000,4,2.5,CUPERTINO,1785,1610,1974,,1064,349,Sold,,,https://www.redfin.com/CA/Cupertino/10140-Firwood-Dr-95014/home/1191852,MLSListings,ML81882669,N,Y,37.3202034,-122.0742681
PAST SALE,December-29-2022,Single Family Residential,10589 Gascoigne Dr,Cupertino,CA,95014,1795000,3,2.0,CUPERTINO,1707,6149,1954,,1052,,Sold,,,https://www.redfin.com/CA/Cupertino/10589-Gascoigne-Dr-95014/home/1227784,MLSListings,ML81913521,N,Y,37.3137842,-121.9986934
PAST SALE,April-6-2022,Single Family Residential,1691 Lewiston Dr,Sunnyvale,CA,94087,3302000,3,2.0,SUNNYVALE,1338,8117,1959,,2468,,Sold,,,https://www.redfin.com/CA/Sunnyvale/1691-Lewiston-Dr-94087/home/1202015,MLSListings,ML81880149,N,Y,37.3385219,-122.048298
PAST SALE,August-24-2022,Single Family Residential,1194 Elmsford Dr,Cupertino,CA,95014,2675000,4,2.0,Cupertino,1680,5974,1963,,1592,,Sold,,,https://www.redfin.com/CA/Cupertino/1194-Elmsford-Dr-95014/home/1106506,"bridgeMLS, Bay East AOR, or Contra Costa AOR",41001367,N,Y,37.3027853,-122.0444574
PAST SALE,April-13-2022,Single Family Residential,20540 Blossom Ln,Cupertino,CA,95014,4923000,4,3.0,CUPERTINO,2981,7732,2018,,1651,,Sold,,,https://www.redfin.com/CA/Cupertino/20540-Blossom-Ln-95014/home/784162,MLSListings,ML81884224,N,Y,37.3145268,-122.0331797
PAST SALE,March-11-2022,Single Family Residential,7552 Heatherwood Dr,Cupertino,CA,95014,4300000,4,2.5,CUPERTINO,2285,13874,1960,,1882,,Sold,,,https://www.redfin.com/CA/Cupertino/7552-Heatherwood-Dr-95014/home/1632086,MLSListings,ML81878657,N,Y,37.3090353,-122.037997
PAST SALE,,Single Family Residential,11593 Upland Way,Cupertino,CA,95014,3850000,6,4.5,,3985,30628,1970,,966,,,,,https://www.redfin.com/CA/Cupertino/11593-Upland-Way-95014/home/1048114,,,N,Y,37.2997453,-122.0512949
PAST SALE,June-23-2022,Single Family Residential,23026 Voss Ave,Cupertino,CA,95014,4218000,4,3.5,CUPERTINO,3125,60060,1982,,1350,21,Sold,,,https://www.redfin.com/CA/Cupertino/23026-Voss-Ave-95014/home/838837,MLSListings,ML81890373,N,Y,37.3192832,-122.0795501
PAST SALE,August-22-2022,Single Family Residential,10466 E Estates Dr,Cupertino,CA,95014,2850000,3,2.0,CUPERTINO,1392,9292,1959,,2047,,Sold,,,https://www.redfin.com/CA/Cupertino/10466-E-Estates-Dr-95014/home/1227664,MLSListings,ML81897343,N,Y,37.3162043,-122.0172145
PAST SALE,March-14-2022,Single Family Residential,915 S Tantau Ave,Cupertino,CA,95014,2858000,4,2.0,CUPERTINO,1432,6258,1960,,1996,,Sold,,,https://www.redfin.com/CA/Cupertino/915-S-Tantau-Ave-95014/home/1579555,MLSListings,ML81876631,N,Y,37.3125651,-122.0079766
PAST SALE,April-1-2022,Single Family Residential,10279 S Tantau Ave,Cupertino,CA,95014,3050000,3,1.0,CUPERTINO,1284,9374,1949,,2375,,Sold,,,https://www.redfin.com/CA/Cupertino/10279-S-Tantau-Ave-95014/home/1314033,MLSListings,ML81876612,N,Y,37.3189369,-122.0067774
PAST SALE,August-11-2022,Single Family Residential,1170 Stafford Dr,Cupertino,CA,95014,3380000,4,3.0,CUPERTINO,2238,9438,1966,,1510,,Sold,,,https://www.redfin.com/CA/Cupertino/1170-Stafford-Dr-95014/home/1106494,MLSListings,ML81899027,N,Y,37.3038977,-122.0489862
PAST SALE,October-25-2022,Single Family Residential,21775 Collingsworth St,Cupertino,CA,95014,3050000,3,2.0,CUPERTINO,1888,7594,1967,,1615,,Sold,,,https://www.redfin.com/CA/Cupertino/21775-Collingsworth-St-95014/home/1123521,MLSListings,ML81907979,N,Y,37.306184,-122.0555347
PAST SALE,March-2-2022,Single Family Residential,10380 Calvert Dr,Cupertino,CA,95014,3600000,5,5.0,CUPERTINO,2900,5002,1996,,1241,,Sold,,,https://www.redfin.com/CA/Cupertino/10380-Calvert-Dr-95014/home/1065794,MLSListings,ML81875571,N,Y,37.317386,-121.9995818
PAST SALE,October-3-2022,Single Family Residential,22996 Standing Oak Ct,Cupertino,CA,95014,3500000,5,3.0,CUPERTINO,2642,9500,1981,,1325,21,Sold,,,https://www.redfin.com/CA/Cupertino/22996-Standing-Oak-Ct-95014/home/1594578,MLSListings,ML81905744,N,Y,37.30385552018043,-122.05375900464136
PAST SALE,June-27-2022,Single Family Residential,10816 Linda Vista Dr,Cupertino,CA,95014,4205001,5,3.0,CUPERTINO,2736,7500,1968,,1537,,Sold,,,https://www.redfin.com/CA/Cupertino/10816-Linda-Vista-Dr-95014/home/1683912,MLSListings,ML81888309,N,Y,37.3111543,-122.0592861
PAST SALE,May-24-2022,Single Family Residential,11245 Mount Crest Pl,Cupertino,CA,95014,3900000,4,3.0,CUPERTINO,2768,15758,1968,,1409,,Sold,,,https://www.redfin.com/CA/Cupertino/11245-Mt-Crest-Pl-95014/home/1726203,MLSListings,ML81886639,N,Y,37.3049697,-122.0593083
PAST SALE,April-29-2022,Single Family Residential,1741 Linnet Ln,Sunnyvale,CA,94087,2650000,4,2.0,SUNNYVALE,1828,6480,1962,,1450,,Sold,,,https://www.redfin.com/CA/Sunnyvale/1741-Linnet-Ln-94087/home/847226,MLSListings,ML81879453,N,Y,37.3356564,-122.016726
PAST SALE,May-6-2022,Single Family Residential,1672 Lachine Dr,Sunnyvale,CA,94087,4000000,4,2.0,SUNNYVALE,2173,8055,1960,,1841,,Sold,,,https://www.redfin.com/CA/Sunnyvale/1672-Lachine-Dr-94087/home/1499782,MLSListings,ML81880421,N,Y,37.3385523,-122.0449014
PAST SALE,March-18-2022,Single Family Residential,1511 Jamestown Dr,Cupertino,CA,95014,3400000,4,2.0,CUPERTINO,1684,6386,1964,,2019,,Sold,,,https://www.redfin.com/CA/Cupertino/1511-Jamestown-Dr-95014/home/1550329,MLSListings,ML81874885,N,Y,37.296695,-122.0345113
PAST SALE,May-12-2022,Single Family Residential,943 Brookgrove Ln,Cupertino,CA,95014,2300000,4,2.0,CUPERTINO,1432,6351,1960,,1606,,Sold,,,https://www.redfin.com/CA/Cupertino/943-Brookgrove-Ln-95014/home/1065812,MLSListings,ML81887787,N,Y,37.3118514,-122.0099086
PAST SALE,March-25-2022,Single Family Residential,20654 Acadia Ct,Cupertino,CA,95014,3780000,4,3.0,CUPERTINO,2632,8186,1979,,1436,,Sold,,,https://www.redfin.com/CA/Cupertino/20654-Acadia-Ct-95014/home/1331770,MLSListings,ML81878284,N,Y,37.3306852,-122.0351996
PAST SALE,June-24-2022,Single Family Residential,10541 Gascoigne Dr,Cupertino,CA,95014,2375000,3,2.0,CUPERTINO,1127,6466,1954,,2107,,Sold,,,https://www.redfin.com/CA/Cupertino/10541-Gascoigne-Dr-95014/home/1383259,MLSListings,ML81890709,N,Y,37.3146426,-121.9983381
PAST SALE,March-25-2022,Single Family Residential,1480 Aster Ct,Cupertino,CA,95014,3435888,4,2.5,CUPERTINO,1758,6000,1968,,1954,,Sold,,,https://www.redfin.com/CA/Cupertino/1480-Aster-Ct-95014/home/788517,MLSListings,ML81879277,N,Y,37.2963703,-122.0395733
PAST SALE,February-22-2022,Single Family Residential,7503 Donegal Dr,Cupertino,CA,95014,3000000,3,2.0,CUPERTINO,1551,8171,1960,,1934,,Sold,,,https://www.redfin.com/CA/Cupertino/7503-Donegal-Dr-95014/home/1726467,MLSListings,ML81873944,N,Y,37.295632,-122.0363541
PAST SALE,March-16-2022,Single Family Residential,22207 Quinterno Ct,Cupertino,CA,95014,3080000,4,3.5,CUPERTINO,2829,7500,1986,,1089,,Sold,,,https://www.redfin.com/CA/Cupertino/22207-Quinterno-Ct-95014/home/1297986,MLSListings,ML81877479,N,Y,37.3209664,-122.0631039
PAST SALE,February-18-2022,Single Family Residential,10195 Avocado Pl,Cupertino,CA,95014,3601000,4,2.0,CUPERTINO,2002,7462,1968,,1799,,Sold,,,https://www.redfin.com/CA/Cupertino/10195-Avocado-Pl-95014/home/1451287,MLSListings,ML81874014,N,Y,37.3207114,-122.0191464
PAST SALE,October-21-2022,Single Family Residential,10389 Normandy Ct,Cupertino,CA,95014,3008000,4,2.5,CUPERTINO,1782,7522,1963,,1688,,Sold,,,https://www.redfin.com/CA/Cupertino/10389-Normandy-Ct-95014/home/625358,MLSListings,ML81905739,N,Y,37.3168855,-122.0265405
PAST SALE,,Single Family Residential,7752 Huntridge Ln,Cupertino,CA,95014,2400000,4,2.0,,1449,6000,1961,,1656,,,,,https://www.redfin.com/CA/Cupertino/7752-Huntridge-Ln-95014/home/1178735,,,N,Y,37.3110907,-122.0423262
PAST SALE,August-12-2022,Single Family Residential,10288 Brittany Ct,Cupertino,CA,95014,2600000,4,2.5,CUPERTINO,1782,7455,1964,,1459,,Sold,,,https://www.redfin.com/CA/Cupertino/10288-Brittany-Ct-95014/home/1313845,MLSListings,ML81901285,N,Y,37.3186721,-122.0260964
PAST SALE,May-27-2022,Single Family Residential,10599 N Stelling Rd,Cupertino,CA,95014,4620000,5,3.5,CUPERTINO,3731,9625,2001,,1238,,Sold,,,https://www.redfin.com/CA/Cupertino/10599-N-Stelling-Rd-95014/home/972296,MLSListings,ML81887609,N,Y,37.3315305,-122.0417934
PAST SALE,August-29-2022,Single Family Residential,1025 Prouty Way,San Jose,CA,95129,2425000,4,3.0,SAN JOSE,1889,6175,1956,,1284,,Sold,,,https://www.redfin.com/CA/San-Jose/1025-Prouty-Way-95129/home/1860931,MLSListings,ML81901242,N,Y,37.3091101,-122.0027355
PAST SALE,May-10-2022,Single Family Residential,19937 La Mar Dr,Cupertino,CA,95014,2650000,3,2.0,CUPERTINO,1392,6439,1958,,1904,,Sold,,,https://www.redfin.com/CA/Cupertino/19937-La-Mar-Dr-95014/home/1531607,MLSListings,ML81883983,N,Y,37.3182596,-122.0222329
PAST SALE,September-27-2022,Single Family Residential,1776 Laurentian Way,Sunnyvale,CA,94087,3050000,5,2.5,SUNNYVALE,2306,8236,1976,,1323,,Sold,,,https://www.redfin.com/CA/Sunnyvale/1776-Laurentian-Way-94087/home/1355226,MLSListings,ML81903207,N,Y,37.334698,-122.0511395
PAST SALE,February-23-2022,Single Family Residential,21150 Canyon Oak Way,Cupertino,CA,95014,4860000,5,4.5,Cupertino,3634,21018,2000,,1337,,Sold,,,https://www.redfin.com/CA/Cupertino/21150-Canyon-Oak-Way-95014/home/1546648,"bridgeMLS, Bay East AOR, or Contra Costa AOR",40977016,N,Y,37.3286783,-122.0790841
PAST SALE,September-19-2022,Single Family Residential,7543 Moltzen Dr,Cupertino,CA,95014,3000000,4,2.0,CUPERTINO,1876,6773,1976,,1599,,Sold,,,https://www.redfin.com/CA/Cupertino/7543-Moltzen-Dr-95014/home/1344898,MLSListings,ML81903078,N,Y,37.3025625,-122.0379748
PAST SALE,,Single Family Residential,10886 Linda Vista Dr,Cupertino,CA,95014,3753000,5,3.0,,2748,7500,1968,,1366,,,,,https://www.redfin.com/CA/Cupertino/10886-Linda-Vista-Dr-95014/home/780590,,,N,Y,37.3100156,-122.0592639
PAST SALE,April-20-2022,Single Family Residential,10448 Johnson Ave,Cupertino,CA,95014,2160000,5,3.0,CUPERTINO,2350,5134,1954,,919,,Sold,,,https://www.redfin.com/CA/Cupertino/10448-Johnson-Ave-95014/home/796226,MLSListings,ML81880476,N,Y,37.3163013,-121.9986934
PAST SALE,August-19-2022,Single Family Residential,7414 Tiptoe Ln,Cupertino,CA,95014,3260000,4,2.5,CUPERTINO,1932,9265,1959,,1687,,Sold,,,https://www.redfin.com/CA/Cupertino/7414-Tiptoe-Ln-95014/home/1383721,MLSListings,ML81900376,N,Y,37.3075138,-122.0345113
PAST SALE,December-5-2022,Single Family Residential,10296 Virginia Swan Pl,Cupertino,CA,95014,3000000,3,2.0,CUPERTINO,1862,7016,1977,,1611,,Sold,,,https://www.redfin.com/CA/Cupertino/10296-Virginia-Swan-Pl-95014/home/1700301,MLSListings,ML81912256,N,Y,37.3273769,-122.0291977
PAST SALE,July-22-2022,Single Family Residential,22394 Riverside Dr,Cupertino,CA,95014,2800000,4,2.5,CUPERTINO,2240,8290,1964,,1250,,Sold,,,https://www.redfin.com/CA/Cupertino/22394-Riverside-Dr-95014/home/1766918,MLSListings,ML81895283,N,Y,37.3106149,-122.0674765
PAST SALE,September-9-2022,Single Family Residential,7363 Rainbow Dr,Cupertino,CA,95014,1688000,3,2.5,CUPERTINO,1523,1523,1995,,1108,150,Sold,,,https://www.redfin.com/CA/Cupertino/7363-Rainbow-Dr-95014/home/945706,MLSListings,ML81903393,N,Y,37.3008552,-122.0337343
PAST SALE,August-22-2022,Single Family Residential,20875 Hanford Dr,Cupertino,CA,95014,3706800,4,3.0,CUPERTINO,2555,9750,1999,,1451,,Sold,,,https://www.redfin.com/CA/Cupertino/20875-Hanford-Dr-95014/home/1415280,MLSListings,ML81899800,N,Y,37.3282523,-122.0392181
PAST SALE,November-17-2022,Single Family Residential,7808 Creekline Dr,Cupertino,CA,95014,3600000,5,4.0,CUPERTINO,4456,9355,2001,,808,,Sold,,,https://www.redfin.com/CA/Cupertino/7808-Creekline-Dr-95014/home/1111942,MLSListings,ML81910598,N,Y,37.3096681,-122.0439912
PAST SALE,August-5-2022,Single Family Residential,10520 Johnson Ave,Cupertino,CA,95014,4050000,5,4.5,CUPERTINO,2770,5987,2022,,1462,,Sold,,,https://www.redfin.com/CA/Cupertino/10520-Johnson-Ave-95014/home/664723,MLSListings,ML81896243,N,Y,37.3149112,-121.9986934
PAST SALE,December-5-2022,Single Family Residential,7503 De Foe Dr,Cupertino,CA,95014,2810000,4,2.0,CUPERTINO,1916,5885,1959,,1467,,Sold,,,https://www.redfin.com/CA/Cupertino/7503-De-Foe-Dr-95014/home/784358,MLSListings,ML81912017,N,Y,37.3118006,-122.0361765
PAST SALE,August-12-2022,Single Family Residential,22384 CRESTON Dr,Los Altos,CA,94024,2800000,3,2.0,LOS ALTOS,1697,11495,1954,,1650,,Sold,,,https://www.redfin.com/CA/Los-Altos/22384-Creston-Dr-94024/home/1150473,MLSListings,ML81901212,N,Y,37.3328025,-122.0663667
PAST SALE,,Single Family Residential,22135 Regnart Rd,Cupertino,CA,95014,2422500,3,3.0,,2346,59393,1974,,1033,,,,,https://www.redfin.com/CA/Cupertino/22135-Regnart-Rd-95014/home/788171,,,N,Y,37.2952077,-122.0629041
PAST SALE,September-23-2022,Single Family Residential,875 Alderbrook Ln,Cupertino,CA,95014,2307000,3,2.0,CUPERTINO,1201,7000,1959,,1921,,Sold,,,https://www.redfin.com/CA/Cupertino/875-Alderbrook-Ln-95014/home/1792770,MLSListings,ML81903305,N,Y,37.3131336,-122.01737
PAST SALE,July-28-2022,Single Family Residential,22432 Balustrol Ct,Cupertino,CA,95014,2668000,4,2.0,CUPERTINO,1800,7840,1963,,1482,,Sold,,,https://www.redfin.com/CA/Cupertino/22432-Balustrol-Ct-95014/home/1805077,MLSListings,ML81898342,N,Y,37.312168,-122.0680536
PAST SALE,July-29-2022,Single Family Residential,1028 Wunderlich Dr,San Jose,CA,95129,2460000,4,2.0,SAN JOSE,1736,7198,1965,,1417,,Sold,,,https://www.redfin.com/CA/San-Jose/1028-Wunderlich-Dr-95129/home/1504333,MLSListings,ML81896089,N,Y,37.3086754,-121.998005
PAST SALE,September-26-2022,Single Family Residential,11618 Birch Spring Ct,Cupertino,CA,95014,3180000,4,3.0,CUPERTINO,2334,4800,1989,,1362,300,Sold,,,https://www.redfin.com/CA/Cupertino/11618-Birch-Spring-Ct-95014/home/1635934,MLSListings,ML81904409,N,Y,37.2989078,-122.0467884
PAST SALE,April-27-2022,Single Family Residential,10424/426 Alicia Ct,Cupertino,CA,95014,4600000,5,3.5,CUPERTINO,3348,16694,1978,,1374,,Sold,,,https://www.redfin.com/CA/Cupertino/10424-Alicia-Ct-95014/home/1325883,MLSListings,ML81872020,N,Y,37.3167076,-122.0732249
PAST SALE,November-21-2022,Single Family Residential,1693 Heron Ave,Sunnyvale,CA,94087,1700000,3,2.5,SUNNYVALE,1488,3539,1980,,1142,,Sold,,,https://www.redfin.com/CA/Sunnyvale/1693-Heron-Ave-94087/home/1777195,MLSListings,ML81909422,N,Y,37.338059,-122.018624
PAST SALE,November-4-2022,Single Family Residential,20602 Murano Cir,Cupertino,CA,95014,2120000,4,4.0,CUPERTINO,2036,1658,2005,,1041,180,Sold,,,https://www.redfin.com/CA/Cupertino/20602-Murano-Cir-95014/home/1734452,MLSListings,ML81908729,N,Y,37.3001514,-122.0335455
PAST SALE,July-19-2022,Single Family Residential,20115 Pacifica Dr,Cupertino,CA,95014,2730000,3,2.0,CUPERTINO,1413,7000,1959,,1932,,Sold,,,https://www.redfin.com/CA/Cupertino/20115-Pacifica-Dr-95014/home/1847882,MLSListings,ML81895877,N,Y,37.3162464,-122.0252971
PAST SALE,April-21-2022,Single Family Residential,22772 Alcalde Rd,Cupertino,CA,95014,3910000,3,3.0,CUPERTINO,3092,7996,2016,,1265,,Sold,,,https://www.redfin.com/CA/Cupertino/22772-Alcalde-Rd-95014/home/95957355,MLSListings,ML81881513,N,Y,37.3156442,-122.0738242
PAST SALE,September-26-2022,Single Family Residential,10720 Castine Ave,Cupertino,CA,95014,2511000,3,2.0,CUPERTINO,1852,8004,1968,,1356,,Sold,,,https://www.redfin.com/CA/Cupertino/10720-Castine-Ave-95014/home/774919,MLSListings,ML81903300,N,Y,37.3331714,-122.0461224
PAST SALE,June-10-2022,Single Family Residential,10366 Heney Creek Pl,Cupertino,CA,95014,3388000,4,3.0,CUPERTINO,3284,10411,1979,,1032,,Sold,,,https://www.redfin.com/CA/Cupertino/10366-Heney-Creek-Pl-95014/home/861003,MLSListings,ML81888850,N,Y,37.3265394,-122.0697626
PAST SALE,August-2-2022,Single Family Residential,7562 Kirwin Ln,Cupertino,CA,95014,2574000,3,2.0,CUPERTINO,1388,6540,1959,,1854,,Sold,,,https://www.redfin.com/CA/Cupertino/7562-Kirwin-Ln-95014/home/1438796,MLSListings,ML81897552,N,Y,37.3130621,-122.0375974
PAST SALE,November-4-2022,Single Family Residential,21847 Shattuck Dr,Cupertino,CA,95014,2900000,4,2.0,CUPERTINO,1779,7519,1968,,1630,,Sold,,,https://www.redfin.com/CA/Cupertino/21847-Shattuck-Dr-95014/home/1644418,MLSListings,ML81909457,N,Y,37.311064,-122.056911
PAST SALE,July-13-2022,Single Family Residential,10218 Pasadena Ave,Cupertino,CA,95014,3700000,5,5.0,CUPERTINO,3978,6803,2012,,930,,Sold,,,https://www.redfin.com/CA/Cupertino/10218-Pasadena-Ave-95014/home/40175855,MLSListings,ML81887603,N,Y,37.3198053,-122.0542028
PAST SALE,September-26-2022,Single Family Residential,7708 Seeber Ct,Cupertino,CA,95014,3530000,4,3.0,CUPERTINO,2969,7405,2000,,1189,,Sold,,,https://www.redfin.com/CA/Cupertino/7708-Seeber-Ct-95014/home/788043,MLSListings,ML81893779,N,Y,37.2990599,-122.0416158
PAST SALE,March-11-2022,Single Family Residential,10380 Sterling Blvd,Cupertino,CA,95014,3400000,5,4.5,CUPERTINO,3156,8223,2015,,1077,,Sold,,,https://www.redfin.com/CA/Cupertino/10380-Sterling-Blvd-95014/home/1234361,MLSListings,ML81875738,N,Y,37.3175986,-121.9970055
PAST SALE,April-4-2022,Single Family Residential,5675 Kimberly St,San Jose,CA,95129,2800000,4,2.0,SAN JOSE,1760,8121,1975,,1591,,Sold,,,https://www.redfin.com/CA/San-Jose/5675-Kimberly-St-95129/home/1740515,MLSListings,ML81878672,N,Y,37.3100105,-122.0028021
PAST SALE,,Single Family Residential,918 Ferngrove Dr,Cupertino,CA,95014,2300000,4,2.0,,1432,6264,1960,,1606,,,,,https://www.redfin.com/CA/Cupertino/918-Ferngrove-Dr-95014/home/1700945,,,N,Y,37.312458,-122.0083319
PAST SALE,July-11-2022,Single Family Residential,1022 White Oak Dr,San Jose,CA,95129,2550000,4,2.5,SAN JOSE,1736,6732,1963,,1469,,Sold,,,https://www.redfin.com/CA/San-Jose/1022-White-Oak-Dr-95129/home/611534,MLSListings,ML81884248,N,Y,37.3088751,-121.9993375
PAST SALE,October-12-2022,Single Family Residential,21590 Grand Ave,Cupertino,CA,95014,1775000,4,2.0,CUPERTINO,1692,5400,1953,,1049,,Sold,,,https://www.redfin.com/CA/Cupertino/21590-Grand-Ave-95014/home/1118870,MLSListings,ML81903489,N,Y,37.3240482,-122.0523382
PAST SALE,April-8-2022,Single Family Residential,1158 Scotland Dr,Cupertino,CA,95014,2350000,3,2.0,CUPERTINO,1190,6216,1961,,1975,,Sold,,,https://www.redfin.com/CA/Cupertino/1158-Scotland-Dr-95014/home/1025501,MLSListings,ML81878157,N,Y,37.304055,-122.0365761
PAST SALE,July-29-2022,Single Family Residential,20635 Nancy Ct,Cupertino,CA,95014,3281000,4,3.0,CUPERTINO,2140,7844,1963,,1533,,Sold,,,https://www.redfin.com/CA/Cupertino/20635-Nancy-Ct-95014/home/972531,MLSListings,ML81895678,N,Y,37.3172958,-122.0349554
PAST SALE,June-17-2022,Single Family Residential,10186 Camino Vista Dr,Cupertino,CA,95014,2570000,3,2.0,CUPERTINO,1749,10800,1954,,1469,,Sold,,,https://www.redfin.com/CA/Cupertino/10186-Camino-Vista-Dr-95014/home/983621,MLSListings,ML81891483,N,Y,37.319863,-122.0694297
PAST SALE,November-2-2022,Single Family Residential,7545 Dumas Dr,Cupertino,CA,95014,2580000,3,2.0,CUPERTINO,1369,5792,1959,,1885,,Sold,,,https://www.redfin.com/CA/Cupertino/7545-Dumas-Dr-95014/home/1700700,MLSListings,ML81909056,N,Y,37.3110042,-122.0371978
PAST SALE,June-30-2022,Single Family Residential,6701 John Dr,Cupertino,CA,95014,2195820,3,2.0,CUPERTINO,1080,6500,1958,,2033,,Sold,,,https://www.redfin.com/CA/Cupertino/6701-John-Dr-95014/home/784705,MLSListings,ML81894197,N,Y,37.3128746,-122.0216556
PAST SALE,June-30-2022,Single Family Residential,7825 Orion Ln,Cupertino,CA,95014,3548000,4,3.0,CUPERTINO,3043,6765,2002,,1166,,Sold,,,https://www.redfin.com/CA/Cupertino/7825-Orion-Ln-95014/home/1363503,MLSListings,ML81891975,N,Y,37.306874,-122.0441022
PAST SALE,July-6-2022,Single Family Residential,10380 Scenic Blvd,Cupertino,CA,95014,3300000,5,3.5,CUPERTINO,2726,9022,1967,,1211,,Sold,,,https://www.redfin.com/CA/Cupertino/10380-Scenic-Blvd-95014/home/1415620,MLSListings,ML81892990,N,Y,37.3174864,-122.0637476
PAST SALE,June-21-2022,Single Family Residential,22286 S De Anza Cir,Cupertino,CA,95014,2950000,4,2.5,CUPERTINO,2429,8480,1967,,1214,,Sold,,,https://www.redfin.com/CA/CUPERTINO/22286-S-DE-ANZA-CIR-95014/home/781003,MLSListings,ML81887776,N,Y,37.309344,-122.065405
PAST SALE,December-5-2022,Single Family Residential,10872 W Estates Dr,Cupertino,CA,95014,4350000,5,4.5,CUPERTINO,3011,8400,2022,,1445,,Sold,,,https://www.redfin.com/CA/Cupertino/10872-W-Estates-Dr-95014/home/1369759,MLSListings,ML81909675,N,Y,37.3102438,-122.0217222
PAST SALE,July-28-2022,Single Family Residential,10741 Santa Lucia Rd,Cupertino,CA,95014,2100000,3,2.0,CUPERTINO,1656,8050,1961,,1268,,Sold,,,https://www.redfin.com/CA/Cupertino/10741-Santa-Lucia-Rd-95014/home/1331846,MLSListings,ML81896866,N,Y,37.3120098,-122.069696
PAST SALE,July-22-2022,Single Family Residential,7540 Tiptoe Ln,Cupertino,CA,95014,3175000,5,2.5,CUPERTINO,2477,13275,1961,,1282,,Sold,,,https://www.redfin.com/CA/Cupertino/7540-Tiptoe-Ln-95014/home/649814,MLSListings,ML81893762,N,Y,37.3074606,-122.0371755
PAST SALE,August-22-2022,Single Family Residential,1538 Poppy Way,Cupertino,CA,95014,2830000,4,2.0,CUPERTINO,1684,6262,1964,,1681,,Sold,,,https://www.redfin.com/CA/Cupertino/1538-Poppy-Way-95014/home/786200,MLSListings,ML81898456,N,Y,37.2961867,-122.0348888
PAST SALE,August-2-2022,Single Family Residential,810 E Homestead Rd,Sunnyvale,CA,94087,2550000,4,3.0,SUNNYVALE,2204,9490,1958,,1157,,Sold,,,https://www.redfin.com/CA/Sunnyvale/810-E-Homestead-Rd-94087/home/762197,MLSListings,ML81894310,N,Y,37.3373922,-122.0175698
PAST SALE,August-23-2022,Single Family Residential,19967 Pear Tree Ct,Cupertino,CA,95014,3000001,4,2.5,CUPERTINO,2430,11500,1962,,1235,,Sold,,,https://www.redfin.com/CA/Cupertino/19967-Pear-Tree-Ct-95014/home/1417410,MLSListings,ML81900394,N,Y,37.3287409,-122.0220997
PAST SALE,July-26-2022,Single Family Residential,10481 N Stelling Rd,Cupertino,CA,95014,2125000,3,1.0,CUPERTINO,1191,9375,1950,,1784,,Sold,,,https://www.redfin.com/CA/Cupertino/10481-N-Stelling-Rd-95014/home/1752807,MLSListings,ML81895025,N,Y,37.3299172,-122.0417268
PAST SALE,July-8-2022,Single Family Residential,22277 Hartman Dr,Los Altos,CA,94024,3250000,4,3.0,LOS ALTOS,2738,9558,1955,,1187,,Sold,,,https://www.redfin.com/CA/Los-Altos/22277-Hartman-Dr-94024/home/1635628,MLSListings,ML81892204,N,Y,37.3307699,-122.0647686
PAST SALE,May-20-2022,Single Family Residential,16201 Stevens Canyon Rd,Cupertino,CA,95014,1800000,4,2.0,CUPERTINO,2000,55543,1940,,900,,Sold,,,https://www.redfin.com/CA/Cupertino/16201-Stevens-Canyon-Rd-95014/home/1480620,MLSListings,ML81882255,N,Y,37.2691436,-122.0958385
PAST SALE,May-11-2022,Single Family Residential,10651 Stokes Ave,Cupertino,CA,95014,2950000,5,2.5,CUPERTINO,2440,7845,1970,,1209,,Sold,,,https://www.redfin.com/CA/Cupertino/10651-Stokes-Ave-95014/home/775407,MLSListings,ML81884723,N,Y,37.3308208,-122.0585092
PAST SALE,November-16-2022,Single Family Residential,906 Hyde Ave,Cupertino,CA,95014,2435000,4,2.0,CUPERTINO,1516,6258,1960,,1606,,Sold,,,https://www.redfin.com/CA/Cupertino/906-Hyde-Ave-95014/home/1314128,MLSListings,ML81904916,N,Y,37.312623,-122.0101529
PAST SALE,August-1-2022,Single Family Residential,21102 Lavina Ct,Cupertino,CA,95014,2500000,2,1.0,CUPERTINO,891,11364,1950,,2806,,Sold,,,https://www.redfin.com/CA/Cupertino/21102-Lavina-Ct-95014/home/773120,MLSListings,ML81894471,N,Y,37.3315591,-122.0435028
PAST SALE,July-15-2022,Single Family Residential,10564 Ainsworth Dr,Los Altos,CA,94024,2620000,4,2.0,LOS ALTOS,1851,13228,1955,,1415,,Sold,,,https://www.redfin.com/CA/Los-Altos/10564-Ainsworth-Dr-94024/home/1635655,MLSListings,ML81887753,N,Y,37.3310877,-122.063903
PAST SALE,June-10-2022,Single Family Residential,10301 Stonydale Dr,Cupertino,CA,95014,2900000,4,2.5,CUPERTINO,2282,13190,1965,,1271,,Sold,,,https://www.redfin.com/CA/Cupertino/10301-Stonydale-Dr-95014/home/774684,MLSListings,ML81886745,N,Y,37.3271683,-122.0621495
PAST SALE,July-18-2022,Single Family Residential,7503 Fallenleaf Ln,Cupertino,CA,95014,3080000,3,2.5,CUPERTINO,1973,9331,1960,,1561,,Sold,,,https://www.redfin.com/CA/Cupertino/7503-Fallenleaf-Ln-95014/home/1097496,MLSListings,ML81881615,N,Y,37.3087395,-122.0364873
PAST SALE,September-20-2022,Single Family Residential,10491 Stokes Ave,Cupertino,CA,95014,2320000,3,2.0,CUPERTINO,1666,7800,1970,,1393,,Sold,,,https://www.redfin.com/CA/Cupertino/10491-Stokes-Ave-95014/home/1700421,MLSListings,ML81901029,N,Y,37.3296324,-122.0547356
PAST SALE,August-3-2022,Single Family Residential,10100 Phar Lap Dr,Cupertino,CA,95014,3325000,4,2.5,CUPERTINO,2095,8190,1964,,1587,,Sold,,,https://www.redfin.com/CA/Cupertino/10100-Phar-Lap-Dr-95014/home/1516118,MLSListings,ML81895401,N,Y,37.3245104,-122.0598854
PAST SALE,June-7-2022,Single Family Residential,1698 Nightingale Ave,Sunnyvale,CA,94087,2950000,4,3.5,SUNNYVALE,2296,6189,2017,,1285,,Sold,,,https://www.redfin.com/CA/Sunnyvale/1698-Nightingale-Ave-94087/home/726362,MLSListings,ML81890507,N,Y,37.3379515,-122.0120405
PAST SALE,August-15-2022,Single Family Residential,21739 Terrace Dr,Cupertino,CA,95014,3212000,4,2.5,CUPERTINO,1890,8330,1962,,1699,,Sold,,,https://www.redfin.com/CA/Cupertino/21739-Terrace-Dr-95014/home/1331866,MLSListings,ML81896447,N,Y,37.3054393,-122.0545802
PAST SALE,August-18-2022,Single Family Residential,10692 Gascoigne Dr,Cupertino,CA,95014,1900000,4,2.0,CUPERTINO,1604,5814,1955,,1185,,Sold,,,https://www.redfin.com/CA/Cupertino/10692-Gascoigne-Dr-95014/home/1265758,MLSListings,ML81897566,N,Y,37.3118182,-121.9999816
PAST SALE,June-1-2022,Single Family Residential,20082 Forest Ave,Cupertino,CA,95014,3001888,3,2.0,Cupertino,1187,10219,1953,,2529,,Sold,,,https://www.redfin.com/CA/Cupertino/20082-Forest-Ave-95014/home/763166,San Francisco MLS,422639439,N,Y,37.3263842,-122.0248086
PAST SALE,June-23-2022,Single Family Residential,10583-585 Santa Lucia Rd,Cupertino,CA,95014,6300000,6,6.0,CUPERTINO,4905,15600,2022,,1284,,Sold,,,https://www.redfin.com/CA/Cupertino/10583-Santa-Lucia-Rd-95014/home/176532539,MLSListings,ML81887726,N,Y,37.3147819,-122.0718933
PAST SALE,June-22-2022,Single Family Residential,10466 Byrne Ave,Cupertino,CA,95014,3250000,4,4.0,CUPERTINO,2834,8169,1935,,1147,,Sold,,,https://www.redfin.com/CA/Cupertino/10466-Byrne-Ave-95014/home/1025394,MLSListings,ML81888636,N,Y,37.3160575,-122.0582206
PAST SALE,August-5-2022,Single Family Residential,7564 Shadowhill Ln,Cupertino,CA,95014,2400000,3,2.0,CUPERTINO,1190,6050,1963,,2017,,Sold,,,https://www.redfin.com/CA/Cupertino/7564-Shadowhill-Ln-95014/home/926563,MLSListings,ML81894411,N,Y,37.3012467,-122.0386631
PAST SALE,June-21-2022,Single Family Residential,7565 Tiptoe Ln,Cupertino,CA,95014,2500000,5,3.0,CUPERTINO,2057,10485,1960,,1215,,Sold,,,https://www.redfin.com/CA/Cupertino/7565-Tiptoe-Ln-95014/home/712562,MLSListings,ML81888800,N,Y,37.3071843,-122.0385299
PAST SALE,August-29-2022,Single Family Residential,22383 Creston Dr,Los Altos,CA,94024,2380000,4,2.0,LOS ALTOS,1344,13067,1954,,1771,,Sold,,,https://www.redfin.com/CA/Los-Altos/22383-Creston-Dr-94024/home/161066049,MLSListings,ML81898714,N,Y,37.3332422,-122.0662779
PAST SALE,August-4-2022,Single Family Residential,885 Betlin Ave,Cupertino,CA,95014,2750000,3,3.0,CUPERTINO,2107,7210,1958,,1305,,Sold,,,https://www.redfin.com/CA/Cupertino/885-Betlin-Ave-95014/home/1298167,MLSListings,ML81893949,N,Y,37.3131085,-122.0224993
PAST SALE,October-14-2022,Single Family Residential,10387 SOMERSET Ct,Cupertino,CA,95014,3150000,5,3.0,CUPERTINO,1937,7989,1962,,1626,,Sold,,,https://www.redfin.com/CA/Cupertino/10387-Somerset-Ct-95014/home/790621,MLSListings,ML81903652,N,Y,37.3170917,-122.0256079
PAST SALE,June-23-2022,Single Family Residential,829 Shetland Pl,Sunnyvale,CA,94087,3320000,5,4.0,SUNNYVALE,3329,8700,1962,,997,47,Sold,,,https://www.redfin.com/CA/Sunnyvale/829-Shetland-Pl-94087/home/1696318,MLSListings,ML81892381,N,Y,37.3337969,-122.018347
PAST SALE,September-19-2022,Single Family Residential,11117 Linda Vista Dr,Cupertino,CA,95014,2700000,4,2.5,CUPERTINO,2074,18936,1966,,1302,,Sold,,,https://www.redfin.com/CA/Cupertino/11117-Linda-Vista-Dr-95014/home/926358,MLSListings,ML81900304,N,Y,37.3063217,-122.0593083
PAST SALE,March-28-2022,Single Family Residential,10532 Cedar Tree Ct,Cupertino,CA,95014,3501000,4,3.0,CUPERTINO,1687,7754,1963,,2075,,Sold,,,https://www.redfin.com/CA/Cupertino/10532-Cedar-Tree-Ct-95014/home/1566884,MLSListings,ML81879045,N,Y,37.330704,-122.0241203
PAST SALE,August-15-2022,Single Family Residential,11131 Bubb Rd,Cupertino,CA,95014,2700000,4,2.5,CUPERTINO,2135,7900,1973,,1265,,Sold,,,https://www.redfin.com/CA/Cupertino/11131-Bubb-Rd-95014/home/954791,MLSListings,ML81896164,N,Y,37.3066186,-122.0506733
PAST SALE,August-16-2022,Single Family Residential,1153 Stafford Dr,Cupertino,CA,95014,2800000,4,3.0,CUPERTINO,2238,8750,1966,,1251,,Sold,,,https://www.redfin.com/CA/Cupertino/1153-Stafford-Dr-95014/home/1466148,MLSListings,ML81894774,N,Y,37.3047135,-122.0495189
PAST SALE,December-14-2022,Single Family Residential,19721 Bixby Dr,Cupertino,CA,95014,2500000,3,2.0,Cupertino,1790,7487,1968,,1397,,Sold,,,https://www.redfin.com/CA/Cupertino/19721-Bixby-Dr-95014/home/1216598,CRMLS,OC22233455,N,Y,37.3213011,-122.0179431
PAST SALE,September-16-2022,Single Family Residential,6394 Bollinger Rd,San Jose,CA,95129,2450000,4,3.0,SAN JOSE,1847,8800,1958,,1326,,Sold,,,https://www.redfin.com/CA/San-Jose/6394-Bollinger-Rd-95129/home/1684395,MLSListings,ML81899836,N,Y,37.3099661,-122.0154158
PAST SALE,October-28-2022,Single Family Residential,1105 Kentwood Ave,Cupertino,CA,95014,1925000,3,2.0,CUPERTINO,1126,6223,1961,,1710,,Sold,,,https://www.redfin.com/CA/Cupertino/1105-Kentwood-Ave-95014/home/801272,MLSListings,ML81904782,N,Y,37.306065,-122.0375086
PAST SALE,September-23-2022,Single Family Residential,11763 Trinity Spring Ct,Cupertino,CA,95014,2850000,3,3.0,CUPERTINO,1939,4000,1989,,1470,300,Sold,,,https://www.redfin.com/CA/Cupertino/11763-Trinity-Spring-Ct-95014/home/1049070,MLSListings,ML81897060,N,Y,37.2960056,-122.0428368
PAST SALE,January-10-2023,Single Family Residential,22316 Rancho Deep Cliff Dr,Cupertino,CA,95014,1800000,2,2.0,CUPERTINO,2119,3660,1976,,849,920,Sold,,,https://www.redfin.com/CA/Cupertino/22316-Rancho-Deep-Cliff-Dr-95014/home/1740163,MLSListings,ML81912022,N,Y,37.3095489,-122.06652
PAST SALE,July-22-2022,Single Family Residential,10905 Miramonte Rd,Cupertino,CA,95014,4600000,5,4.5,CUPERTINO,4333,11566,1997,,1062,,Sold,,,https://www.redfin.com/CA/Cupertino/10905-Miramonte-Rd-95014/home/1662911,MLSListings,ML81894157,N,Y,37.309872,-122.0695628
PAST SALE,September-20-2022,Single Family Residential,22600 Alpine Dr,Cupertino,CA,95014,3000000,4,3.0,CUPERTINO,3021,10975,1979,,993,,Sold,,,https://www.redfin.com/CA/Cupertino/22600-Alpine-Dr-95014/home/782227,MLSListings,ML81898913,N,Y,37.3278909,-122.0697626
PAST SALE,July-22-2022,Single Family Residential,859 CANDLEWOOD Dr,Cupertino,CA,95014,2260000,3,2.0,CUPERTINO,1684,5975,1960,,1342,,Sold,,,https://www.redfin.com/CA/Cupertino/859-Candlewood-Dr-95014/home/1124531,MLSListings,ML81890582,N,Y,37.3131359,-122.014683
PAST SALE,April-19-2022,Single Family Residential,10033 Peninsula Ave,Cupertino,CA,95014,2055000,3,2.5,CUPERTINO,1477,3369,1997,,1391,,Sold,,,https://www.redfin.com/CA/Cupertino/10033-Peninsula-Ave-95014/home/1631777,MLSListings,ML81876980,N,Y,37.3231256,-122.0527822
PAST SALE,July-1-2022,Single Family Residential,10047 Crescent Rd,Cupertino,CA,95014,5350000,6,6.5,CUPERTINO,3785,9996,2022,,1413,,Sold,,,https://www.redfin.com/CA/Cupertino/10047-Crescent-Rd-95014/home/1293440,MLSListings,ML81879441,N,Y,37.3242116,-122.0635478
PAST SALE,September-2-2022,Single Family Residential,10592 Johnson Ave,Cupertino,CA,95014,2788000,4,3.0,CUPERTINO,2058,5459,2007,,1355,,Sold,,,https://www.redfin.com/CA/Cupertino/10592-Johnson-Ave-95014/home/625492,MLSListings,ML81894951,N,Y,37.313637,-121.9991821
PAST SALE,October-4-2022,Single Family Residential,11852 Placer Spring Ct,Cupertino,CA,95014,3200000,4,3.0,CUPERTINO,2445,5000,1989,,1309,300,Sold,,,https://www.redfin.com/CA/Cupertino/11852-Placer-Spring-Ct-95014/home/1128553,MLSListings,ML81898698,N,Y,37.2948617,-122.0411496
PAST SALE,October-14-2022,Single Family Residential,7920 Fall Ct,Cupertino,CA,95014,2650000,5,2.0,CUPERTINO,1677,6017,1962,,1580,,Sold,,,https://www.redfin.com/CA/Cupertino/7920-Fall-Ct-95014/home/1284882,MLSListings,ML81896701,N,Y,37.312298,-122.0464776
PAST SALE,June-21-2022,Single Family Residential,915 Saint Joseph Ave,Los Altos,CA,94024,3525000,4,2.5,LOS ALTOS,2733,35589,1941,,1290,,Sold,,,https://www.redfin.com/CA/Los-Altos/915-St-Joseph-Ave-94024/home/1364924,MLSListings,ML81883741,N,Y,37.341605,-122.0900247
PAST SALE,March-18-2022,Single Family Residential,11351 Bubb Rd,Cupertino,CA,95014,3535000,5,3.0,CUPERTINO,2492,10191,1969,,1419,,Sold,,,https://www.redfin.com/CA/Cupertino/11351-Bubb-Rd-95014/home/784523,MLSListings,ML81871837,N,Y,37.3030625,-122.0506955
PAST SALE,August-15-2022,Single Family Residential,11602 Bridge Park Ct,Cupertino,CA,95014,3475000,4,3.0,CUPERTINO,2445,5000,1988,,1421,300,Sold,,,https://www.redfin.com/CA/Cupertino/11602-Bridge-Park-Ct-95014/home/788415,MLSListings,ML81895299,N,Y,37.2990917,-122.0438136
PAST SALE,September-9-2022,Single Family Residential,5865 Arboretum Dr,Los Altos,CA,94024,4000000,6,3.5,LOS ALTOS,3755,19719,1971,,1065,,Sold,,,https://www.redfin.com/CA/Los-Altos/5865-Arboretum-Dr-94024/home/776931,MLSListings,ML81895097,N,Y,37.3350926,-122.0762433
PAST SALE,November-15-2022,Single Family Residential,10341 Stokes Ave,Cupertino,CA,95014,2700000,3,2.0,CUPERTINO,2081,8284,1969,,1297,,Sold,,,https://www.redfin.com/CA/Cupertino/10341-Stokes-Ave-95014/home/1178457,MLSListings,ML81903436,N,Y,37.3275577,-122.0527156
PAST SALE,December-22-2022,Single Family Residential,10903 Canyon Vista Dr,Cupertino,CA,95014,1910000,2,2.0,CUPERTINO,2173,3960,1978,,879,920,Sold,,,https://www.redfin.com/CA/Cupertino/10903-Canyon-Vista-Dr-95014/home/983660,MLSListings,ML81908456,N,Y,37.3095447,-122.0684087
PAST SALE,March-17-2022,Single Family Residential,10740 Gascoigne Dr,Cupertino,CA,95014,3550000,4,4.5,CUPERTINO,2777,7175,2021,,1278,,Sold,,,https://www.redfin.com/CA/Cupertino/10740-Gascoigne-Dr-95014/home/1025857,MLSListings,ML81844855,N,Y,37.3114042,-122.0006701
PAST SALE,August-26-2022,Single Family Residential,21782 Lindy Ln,Cupertino,CA,95014,3030000,4,2.0,CUPERTINO,2354,10050,1971,,1287,,Sold,,,https://www.redfin.com/CA/Cupertino/21782-Lindy-Ln-95014/home/1579111,MLSListings,ML81889821,N,Y,37.3034449,-122.0554015
PAST SALE,January-27-2022,Single Family Residential,14900 Pierce Rd,Saratoga,CA,95070,2550000,5,4.0,SARATOGA,4413,82812,2020,,578,,Sold,,,https://www.redfin.com/CA/Saratoga/14900-Pierce-Rd-95070/home/906588,MLSListings,ML81868566,N,Y,37.2549499,-122.0707215
PAST SALE,December-21-2022,Single Family Residential,952 November Dr,Cupertino,CA,95014,2500000,6,3.0,CUPERTINO,2349,6000,1963,,1064,,Sold,,,https://www.redfin.com/CA/Cupertino/952-November-Dr-95014/home/1140862,MLSListings,ML81904926,N,Y,37.3119455,-122.0472102
PAST SALE,December-2-2022,Single Family Residential,11041 Stevens Canyon Rd,Cupertino,CA,95014,2100000,2,1.0,CUPERTINO,900,858089,1940,,2333,,Sold,,,https://www.redfin.com/CA/Cupertino/11041-Stevens-Canyon-Rd-95014/home/12343865,MLSListings,ML81904030,N,Y,37.3084606,-122.0719044
PAST SALE,August-29-2022,Single Family Residential,22365 Regnart Rd,Cupertino,CA,95014,3500000,4,3.5,CUPERTINO,3813,89298,1981,,918,63,Sold,,,https://www.redfin.com/CA/Cupertino/22365-Regnart-Rd-95014/home/788161,MLSListings,ML81885405,N,Y,37.2966381,-122.0646354
PAST SALE,September-2-2022,Single Family Residential,15681 Montebello Rd,Cupertino,CA,95014,3480000,4,4.5,CUPERTINO,5400,2221560,1980,,644,,Sold,,,https://www.redfin.com/CA/Cupertino/15681-Montebello-Rd-95014/home/11893969,MLSListings,ML81884103,N,Y,37.2953339,-122.098758
PAST SALE,,Single Family Residential,20671 Rodrigues Ave,Cupertino,CA,95014,4650000,4,4.0,,3933,10014,2012,,1182,,,,,https://www.redfin.com/CA/Cupertino/20671-Rodrigues-Ave-95014/home/1383710,,,N,Y,37.3195373,-122.0355548
PAST SALE,,Single Family Residential,20675 Acadia Ct,Cupertino,CA,95014,3500000,4,3.0,,2632,7874,1979,,1330,,,,,https://www.redfin.com/CA/Cupertino/20675-Acadia-Ct-95014/home/777148,,,N,Y,37.3311802,-122.0354882
PAST SALE,,Single Family Residential,10601 N Portal Ave,Cupertino,CA,95014,2375000,3,3.0,,1655,8591,1972,,1435,,,,,https://www.redfin.com/CA/Cupertino/10601-N-Portal-Ave-95014/home/1565421,,,N,Y,37.3320648,-122.019857
PAST SALE,,Single Family Residential,6938 W Riverside Way,San Jose,CA,95129,1900000,3,2.0,,1265,6564,1956,,1502,,,,,https://www.redfin.com/CA/San-Jose/6938-W-Riverside-Way-95129/home/790092,,,N,Y,37.3095499,-122.02583
PAST SALE,,Single Family Residential,21815 Eaton Pl,Cupertino,CA,95014,2450000,4,3.0,,1568,4381,1994,,1563,,,,,https://www.redfin.com/CA/Cupertino/21815-Eaton-Pl-95014/home/1455710,,,N,Y,37.3233192,-122.056245
PAST SALE,,Single Family Residential,18405 Chelmsford Dr,Cupertino,CA,95014,3250000,5,3.0,,3078,5347,1990,,1056,,,,,https://www.redfin.com/CA/Cupertino/18405-Chelmsford-Dr-95014/home/794761,,,N,Y,37.3128151,-121.9982937
PAST SALE,,Single Family Residential,18630 Crabtree Ave,Cupertino,CA,95014,2030000,3,1.0,,1048,5578,1954,,1937,,,,,https://www.redfin.com/CA/Cupertino/18630-Crabtree-Ave-95014/home/796227,,,N,Y,37.3172852,-121.9976718
PAST SALE,,Single Family Residential,10386 S Stelling Rd,Cupertino,CA,95014,1300000,5,4.0,,3009,8118,1997,,432,,,,,https://www.redfin.com/CA/Cupertino/10386-S-Stelling-Rd-95014/home/634497,,,N,Y,37.3172484,-122.0411496
PAST SALE,,Single Family Residential,19710 Wheaton Dr,Cupertino,CA,95014,2420000,4,2.0,,1800,7800,1963,,1344,,,,,https://www.redfin.com/CA/Cupertino/19710-Wheaton-Dr-95014/home/1178095,,,N,Y,37.324172483,-122.0179227
PAST SALE,,Single Family Residential,10604 Ainsworth Dr,Los Altos,CA,94024,3050000,4,3.0,,2483,10288,1955,,1228,,,,,https://www.redfin.com/CA/Los-Altos/10604-Ainsworth-Dr-94024/home/551074,,,N,Y,37.3317058,-122.0642803
PAST SALE,,Single Family Residential,10325 Cherry Tree Ln,Cupertino,CA,95014,1900000,4,3.0,,1518,7673,1962,,1252,,,,,https://www.redfin.com/CA/Cupertino/10325-Cherry-Tree-Ln-95014/home/916769,,,N,Y,37.3274336,-122.0261852
PAST SALE,,Single Family Residential,7571 Lockford Ct,Cupertino,CA,95014,2295000,3,2.0,,1411,6360,1961,,1627,,,,,https://www.redfin.com/CA/Cupertino/7571-Lockford-Ct-95014/home/1805225,,,N,Y,37.3051872,-122.0394845
PAST SALE,,Single Family Residential,19181 Phil Ln,Cupertino,CA,95014,2110000,6,3.0,,2103,6483,1954,,1003,,,,,https://www.redfin.com/CA/Cupertino/19181-Phil-Ln-95014/home/1476221,,,N,Y,37.3162936,-122.008132
PAST SALE,,Single Family Residential,1137 Stafford Dr,Cupertino,CA,95014,3000000,6,5.0,,2958,7143,1966,,1014,,,,,https://www.redfin.com/CA/Cupertino/1137-Stafford-Dr-95014/home/1128491,,,N,Y,37.3055877,-122.0483646
PAST SALE,,Single Family Residential,10318 Cold Harbor Ave,Cupertino,CA,95014,2755000,3,2.0,,1845,7500,1968,,1493,,,,,https://www.redfin.com/CA/Cupertino/10318-Cold-Harbor-Ave-95014/home/789439,,,N,Y,37.3189281,-122.0181472
PAST SALE,,Single Family Residential,10158 Myer Pl,Cupertino,CA,95014,3700000,4,2.0,,2161,7503,1969,,1712,,,,,https://www.redfin.com/CA/Cupertino/10158-Myer-Pl-95014/home/1566792,,,N,Y,37.3251122,-122.0239204
PAST SALE,,Single Family Residential,11057 Linda Vista Dr,Cupertino,CA,95014,2360000,3,2.0,,1766,7464,1965,,1336,,,,,https://www.redfin.com/CA/Cupertino/11057-Linda-Vista-Dr-95014/home/838778,,,N,Y,37.3081393,-122.0598188
PAST SALE,,Single Family Residential,10533 Esquire Pl,Cupertino,CA,95014,2632500,5,3.0,,2624,8082,1968,,1003,,,,,https://www.redfin.com/CA/Cupertino/10533-Esquire-Pl-95014/home/775095,,,N,Y,37.3308397,-122.0475654
