SALE TYPE,SOLD DATE,PROPERTY TYPE,ADDRESS,CITY,STATE OR PROVINCE,ZIP OR POSTAL CODE,PRICE,BEDS,BATHS,LOCATION,SQUARE FEET,LOT SIZE,YEAR BUILT,DAYS ON MARKET,$/SQUARE FEET,HOA/MONTH,STATUS,NEXT OPEN HOUSE START TIME,NEXT OPEN HOUSE END TIME,URL (SEE https://www.redfin.com/buy-a-home/comparative-market-analysis FOR INFO ON PRICING),SOURCE,MLS#,FAVORITE,INTERESTED,LATITUDE,LONGITUDE
PAST SALE,July-25-2022,Single Family Residential,1133 18th Ave,Redwood City,CA,94063,1500000,2,1.0,REDWOOD CITY,1100,6000,1948,,1364,,Sold,,,https://www.redfin.com/CA/Redwood-City/1133-18th-Ave-94063/home/819193,MLSListings,ML81897695,N,Y,37.4819988,-122.1855359
PAST SALE,January-10-2023,Single Family Residential,35 Hesketh Dr,Menlo Park,CA,94025,8900000,5,6.5,MENLO PARK,4683,10028,2023,,1900,,Sold,,,https://www.redfin.com/CA/Menlo-Park/35-Hesketh-Dr-94025/home/1232846,MLSListings,ML81916010,N,Y,37.4411516,-122.1981505
PAST SALE,,Single Family Residential,828 Fourteenth Ave,Menlo Park,CA,94025,3095000,4,4.5,,2634,5382,2022,,1175,,,,,https://www.redfin.com/CA/Menlo-Park/828-Fourteenth-Ave-94025/home/2014752,,,N,Y,37.4771277,-122.1907155
PAST SALE,,Single Family Residential,5 Light Way,Menlo Park,CA,94025,1550000,2,2.0,,1210,7000,1983,,1281,,,,,https://www.redfin.com/CA/Menlo-Park/5-Light-Way-94025/home/2043087,,,N,Y,37.4739017,-122.1987491
PAST SALE,April-15-2022,Single Family Residential,752 Gilbert Ave,Menlo Park,CA,94025,4280000,4,3.5,Menlo Park,2483,5450,2022,,1724,,Sold,,,https://www.redfin.com/CA/Menlo-Park/752-Gilbert-Ave-94025/home/855525,"bridgeMLS, Bay East AOR, or Contra Costa AOR",40989028,N,Y,37.4611279,-122.1632738
PAST SALE,,Single Family Residential,2191 Poplar Ave,East Palo Alto,CA,94303,1050000,2,1.0,,920,5000,1950,,1141,,,,,https://www.redfin.com/CA/East-Palo-Alto/2191-Poplar-Ave-94303/home/2037609,,,N,Y,37.4672897,-122.1500243
PAST SALE,July-26-2022,Single Family Residential,2040 Menalto,Menlo Park,CA,94025,3850000,4,3.0,MENLO PARK,2257,5452,2021,,1706,,Sold,,,https://www.redfin.com/CA/Menlo-Park/2040-Menalto-Ave-94025/home/868896,MLSListings,ML81888492,N,Y,37.4621218,-122.1516087
PAST SALE,,Single Family Residential,130 Hanna Way,Menlo Park,CA,94025,6150000,4,3.0,,2960,10766,1998,,2078,,,,,https://www.redfin.com/CA/Menlo-Park/130-Hanna-Way-94025/home/1111918,,,N,Y,37.4619918,-122.1659792
PAST SALE,,Single Family Residential,1147 Windsor Way,Menlo Park,CA,94025,4400000,3,3.0,,1710,10200,1948,,2573,,,,,https://www.redfin.com/CA/Menlo-Park/1147-Windsor-Way-94025/home/1240861,,,N,Y,37.4452963,-122.1875313
PAST SALE,August-30-2022,Single Family Residential,2360 Branner Dr,Menlo Park,CA,94025,3000000,3,2.5,MENLO PARK,2580,11000,1962,,1163,,Sold,,,https://www.redfin.com/CA/Menlo-Park/2360-Branner-Dr-94025/home/1964442,MLSListings,ML81905916,N,Y,37.4229223,-122.1942266
PAST SALE,February-22-2022,Single Family Residential,280 San Luis Dr,Menlo Park,CA,94025,2600000,2,2.0,MENLO PARK,1440,9520,1950,,1806,,Sold,,,https://www.redfin.com/CA/Menlo-Park/280-San-Luis-Dr-94025/home/1617217,MLSListings,ML81879267,N,Y,37.4584499,-122.164693
PAST SALE,,Single Family Residential,128 Cornell Rd,Menlo Park,CA,94025,3650000,3,2.0,,1770,8400,1935,,2062,,,,,https://www.redfin.com/CA/Menlo-Park/128-Cornell-Rd-94025/home/1809643,,,N,Y,37.4457315,-122.175248
PAST SALE,,Single Family Residential,1330 Corinne Ln,Menlo Park,CA,94025,5830000,5,4.0,,3110,16650,1959,,1875,,,,,https://www.redfin.com/CA/Menlo-Park/1330-Corinne-Ln-94025/home/886244,,,N,Y,37.4450862,-122.1930295
PAST SALE,January-31-2022,Single Family Residential,1225 Santa Cruz Ave,Menlo Park,CA,94025,3400000,4,3.0,MENLO PARK,2510,10100,1951,,1355,,Sold,,,https://www.redfin.com/CA/Menlo-Park/1225-Santa-Cruz-Ave-94025/home/1324741,MLSListings,ML81876362,N,Y,37.4443741,-122.1902583
PAST SALE,June-10-2022,Single Family Residential,901 Berkeley Ave,Menlo Park,CA,94025,8200000,5,5.5,MENLO PARK,5640,20000,2004,,1454,,Sold,,,https://www.redfin.com/CA/Menlo-Park/901-Berkeley-Ave-94025/home/2035808,MLSListings,ML81889176,N,Y,37.4691199,-122.1642717
PAST SALE,April-19-2022,Single Family Residential,595 Morey Dr,Menlo Park,CA,94025,3150000,3,1.0,MENLO PARK,1240,8000,1945,,2540,,Sold,,,https://www.redfin.com/CA/Menlo-Park/595-Morey-Dr-94025/home/1091594,MLSListings,ML81887655,N,Y,37.4492734,-122.1804808
PAST SALE,,Single Family Residential,1155 Hermosa Way,Menlo Park,CA,94025,4400000,3,2.0,,1920,10080,1948,,2292,,,,,https://www.redfin.com/CA/Menlo-Park/1155-Hermosa-Way-94025/home/884459,,,N,Y,37.4435836,-122.1926748
PAST SALE,June-4-2022,Single Family Residential,1216 Windermere Ave,Menlo Park,CA,94025,1100000,3,2.0,MENLO PARK,1380,5750,1947,,797,,Sold,,,https://www.redfin.com/CA/Menlo-Park/1216-Windermere-Ave-94025/home/1037491,MLSListings,ML81894917,N,Y,37.4748324,-122.1588386
PAST SALE,August-25-2022,Single Family Residential,316 Hedge Rd,Menlo Park,CA,94025,1650000,3,1.0,MENLO PARK,1170,5500,1949,,1410,,Sold,,,https://www.redfin.com/CA/Menlo-Park/316-Hedge-Rd-94025/home/2034277,MLSListings,ML81905201,N,Y,37.4767906,-122.1723655
PAST SALE,October-19-2022,Single Family Residential,230 Felton Dr,Menlo Park,CA,94025,3300000,5,3.0,MENLO PARK,2290,10640,1948,,1441,,Sold,,,https://www.redfin.com/CA/Menlo-Park/230-Felton-Dr-94025/home/852404,MLSListings,ML81910946,N,Y,37.4631131,-122.1901474
PAST SALE,October-12-2022,Single Family Residential,184 San Andreas Dr,Menlo Park,CA,94025,2650000,3,1.5,MENLO PARK,1530,9025,1952,,1732,,Sold,,,https://www.redfin.com/CA/Menlo-Park/184-San-Andreas-Dr-94025/home/1876635,MLSListings,ML81910239,N,Y,37.45728,-122.1650922
PAST SALE,May-6-2022,Single Family Residential,324 Arbor Rd,Menlo Park,CA,94025,5400000,3,3.0,MENLO PARK,2055,5900,2014,,2628,,Sold,,,https://www.redfin.com/CA/Menlo-Park/324-Arbor-Rd-94025/home/1743030,MLSListings,ML81890629,N,Y,37.4431864,-122.1807912
PAST SALE,June-29-2022,Single Family Residential,1303 American Way,Menlo Park,CA,94025,2850000,3,1.5,MENLO PARK,1530,8800,1948,,1863,,Sold,,,https://www.redfin.com/CA/Menlo-Park/1303-American-Way-94025/home/1174406,MLSListings,ML81898411,N,Y,37.4367265,-122.2006334
PAST SALE,May-20-2022,Single Family Residential,1220 N Lemon Ave,Menlo Park,CA,94025,6145000,5,4.5,MENLO PARK,4270,14997,2021,,1439,,Sold,,,https://www.redfin.com/CA/Menlo-Park/1220-N-Lemon-Ave-94025/home/2027573,MLSListings,ML81892891,N,Y,37.4386213,-122.1985274
PAST SALE,May-25-2022,Single Family Residential,1012 College Ave,Menlo Park,CA,94025,5700000,4,3.5,MENLO PARK,3581,7800,2005,,1592,,Sold,,,https://www.redfin.com/CA/Menlo-Park/1012-College-Ave-94025/home/893040,MLSListings,ML81891106,N,Y,37.4447596,-122.1807912
PAST SALE,,Single Family Residential,9 Politzer Dr,Menlo Park,CA,94025,4900000,3,3.0,,2388,10200,1955,,2052,,,,,https://www.redfin.com/CA/Menlo-Park/9-Politzer-Dr-94025/home/884331,,,N,Y,37.4399979,-122.1972638
PAST SALE,,Single Family Residential,197 Oak Grove Ave,Atherton,CA,94027,15500000,5,6.0,,7722,54418,1928,,2007,,,,,https://www.redfin.com/CA/Atherton/197-Oak-Grove-Ave-94027/home/2039369,,,N,Y,37.4613501,-122.1796826
PAST SALE,July-15-2022,Single Family Residential,2081 Cedar Ave,Menlo Park,CA,94025,2700000,4,2.0,MENLO PARK,1780,6000,1948,,1517,,Sold,,,https://www.redfin.com/CA/Menlo-Park/2081-Cedar-Ave-94025/home/2002578,MLSListings,ML81897889,N,Y,37.4349156,-122.2060763
PAST SALE,,Single Family Residential,211 Haight St,Menlo Park,CA,94025,1745000,3,1.0,,1080,7896,1951,,1616,,,,,https://www.redfin.com/CA/Menlo-Park/211-Haight-St-94025/home/1816535,,,N,Y,37.4661883,-122.152895
PAST SALE,,Single Family Residential,308 Chester St,Menlo Park,CA,94025,1158000,3,2.0,,1790,5760,1947,,647,,,,,https://www.redfin.com/CA/Menlo-Park/308-Chester-St-94025/home/2020202,,,N,Y,37.4657659,-122.1543184
PAST SALE,June-23-2022,Single Family Residential,2161 Mills Ave,Menlo Park,CA,94025,5025000,4,3.5,MENLO PARK,2417,5026,2022,,2079,,Sold,,,https://www.redfin.com/CA/Menlo-Park/2161-Mills-Ave-94025/home/175877053,MLSListings,ML81897542,N,Y,37.4352864,-122.2119606
PAST SALE,June-3-2022,Single Family Residential,1383 Carlton Ave,Menlo Park,CA,94025,980000,3,1.0,MENLO PARK,910,9960,1955,,1077,,Sold,,,https://www.redfin.com/CA/Menlo-Park/1383-Carlton-Ave-94025/home/1574751,MLSListings,ML81894880,N,Y,37.4789927,-122.1530281
PAST SALE,,Single Family Residential,2181 Cam De Los Robles,Menlo Park,CA,94025,3100000,3,2.0,,1350,6000,1951,,2296,,,,,https://www.redfin.com/CA/Menlo-Park/2181-Cam-De-Los-Robles-94025/home/1857659,,,N,Y,37.433454,-122.2085027
PAST SALE,December-21-2022,Single Family Residential,2024 Gordon Ave,Menlo Park,CA,94025,4800000,4,4.5,MENLO PARK,3102,5984,2022,,1547,,Sold,,,https://www.redfin.com/CA/Menlo-Park/2024-Gordon-Ave-94025/home/1988659,MLSListings,ML81915148,N,Y,37.4336473,-122.2015849
PAST SALE,June-13-2022,Single Family Residential,2001 Sharon Rd,Menlo Park,CA,94025,3642000,4,3.5,MENLO PARK,2306,5248,2009,,1579,,Sold,,,https://www.redfin.com/CA/Menlo-Park/2001-Sharon-Rd-94025/home/21968099,MLSListings,ML81896306,N,Y,37.4322057,-122.1973303
PAST SALE,July-5-2022,Single Family Residential,2043 Ashton Ave,Menlo Park,CA,94025,4595000,4,4.5,MENLO PARK,2884,6000,2022,,1593,,Sold,,,https://www.redfin.com/CA/Menlo-Park/2043-Ashton-Ave-94025/home/1163276,MLSListings,ML81899048,N,Y,37.4335191,-122.2022516
PAST SALE,July-28-2022,Single Family Residential,516 Placitas Ave,Menlo Park,CA,94025,3225000,4,3.0,MENLO PARK,1970,11880,1959,,1637,,Sold,,,https://www.redfin.com/CA/Menlo-Park/516-Placitas-Ave-94025/home/1726552,MLSListings,ML81902219,N,Y,37.4724015,-122.196111
PAST SALE,August-8-2022,Single Family Residential,2156 Sterling Ave,Menlo Park,CA,94025,4525000,4,4.5,MENLO PARK,2902,6000,2022,,1559,,Sold,,,https://www.redfin.com/CA/Menlo-Park/2156-Sterling-Ave-94025/home/1837431,MLSListings,ML81903264,N,Y,37.4326837,-122.2061088
PAST SALE,July-7-2022,Single Family Residential,1325 Cloud Ave,Menlo Park,CA,94025,5400000,5,4.5,MENLO PARK,3009,7401,2022,,1795,,Sold,,,https://www.redfin.com/CA/Menlo-Park/1325-Cloud-Ave-94025/home/1710634,MLSListings,ML81899353,N,Y,37.4349006,-122.2030053
PAST SALE,June-6-2022,Single Family Residential,1845 Oakdell Dr,Menlo Park,CA,94025,8650000,6,5.5,MENLO PARK,4726,11656,2017,,1830,,Sold,,,https://www.redfin.com/CA/Menlo-Park/1845-Oakdell-Dr-94025/home/1372097,MLSListings,ML81895004,N,Y,37.4329403,-122.1929408
PAST SALE,July-15-2022,Single Family Residential,2151 Manzanita Ave,Menlo Park,CA,94025,4470000,4,4.5,MENLO PARK,2675,6000,2022,,1671,,Sold,,,https://www.redfin.com/CA/Menlo-Park/2151-Manzanita-Ave-94025/home/1185332,MLSListings,ML81900329,N,Y,37.4346571,-122.2099657
PAST SALE,February-4-2022,Single Family Residential,855 Menlo Oaks Dr,Menlo Park,CA,94025,4600000,3,3.0,MENLO PARK,2317,24338,1951,,1985,,Sold,,,https://www.redfin.com/CA/Menlo-Park/855-Menlo-Oaks-Dr-94025/home/854473,MLSListings,ML81877067,N,Y,37.4689801,-122.1671988
PAST SALE,October-12-2022,Single Family Residential,1760 Altschul Ave,Menlo Park,CA,94025,3975000,4,2.0,MENLO PARK,1741,6900,1960,,2283,,Sold,,,https://www.redfin.com/CA/Menlo-Park/1760-Altschul-Ave-94025/home/898856,MLSListings,ML81910181,N,Y,37.4340893,-122.2102317
PAST SALE,August-16-2022,Single Family Residential,2191 Mills Ave,Menlo Park,CA,94025,5200000,5,5.5,MENLO PARK,2957,6957,2022,,1759,,Sold,,,https://www.redfin.com/CA/Menlo-Park/2191-Mills-Ave-94025/home/1145702,MLSListings,ML81903975,N,Y,37.4350452,-122.212138
PAST SALE,May-31-2022,Single Family Residential,212 Haight St,Menlo Park,CA,94025,2000000,3,2.0,MENLO PARK,1290,6500,1957,,1550,,Sold,,,https://www.redfin.com/CA/Menlo-Park/212-Haight-St-94025/home/1850884,MLSListings,ML81894103,N,Y,37.4665687,-122.1526289
PAST SALE,,Single Family Residential,1031 Timothy Ln,Menlo Park,CA,94025,2200000,3,1.0,,1520,5775,1951,,1447,,,,,https://www.redfin.com/CA/Menlo-Park/1031-Timothy-Ln-94025/home/1333576,,,N,Y,37.4783475,-122.1780862
PAST SALE,,Single Family Residential,8 White Oak Ct,Menlo Park,CA,94025,4285000,3,3.0,,3101,13050,1952,,1382,,,,,https://www.redfin.com/CA/Menlo-Park/8-White-Oak-Ct-94025/home/1250721,,,N,Y,37.4330447,-122.1910564
PAST SALE,,Single Family Residential,371 Cam Al Lago,Menlo Park,CA,94027,4550000,4,4.0,,2606,6000,2011,,1746,,,,,https://www.redfin.com/CA/Menlo-Park/371-Cam-Al-Lago-94027/home/1163335,,,N,Y,37.4357044,-122.2128029
PAST SALE,November-4-2022,Single Family Residential,140 Stone Pine Ln,Menlo Park,CA,94025,1500000,3,2.5,MENLO PARK,1980,2002,1964,,758,183,Sold,,,https://www.redfin.com/CA/Menlo-Park/140-Stone-Pine-Ln-94025/home/850381,MLSListings,ML81912409,N,Y,37.4588213,-122.1911783
PAST SALE,May-5-2022,Single Family Residential,2160 Menalto Ave,Menlo Park,CA,94025,1500000,3,2.0,MENLO PARK,1290,7500,2008,,1163,,Sold,,,https://www.redfin.com/CA/Menlo-Park/2160-Menalto-Ave-94025/home/1995797,MLSListings,ML81886627,N,Y,37.4655341,-122.1508547
PAST SALE,,Single Family Residential,2084 Manzanita Ave,Menlo Park,CA,94025,4525000,3,4.0,,2607,6000,1950,,1736,,,,,https://www.redfin.com/CA/Menlo-Park/2084-Manzanita-Ave-94025/home/1968253,,,N,Y,37.4361941,-122.2093451
PAST SALE,March-1-2022,Single Family Residential,957 Rose Ave,Menlo Park,CA,94025,6500000,5,4.5,MENLO PARK,4257,6102,2016,,1527,,Sold,,,https://www.redfin.com/CA/Menlo-Park/957-Rose-Ave-94025/home/1125102,MLSListings,ML81879362,N,Y,37.4503301,-122.1890832
PAST SALE,July-1-2022,Single Family Residential,1304 Hollyburne Ave,Menlo Park,CA,94025,925000,2,1.0,MENLO PARK,720,4830,1954,,1285,,Sold,,,https://www.redfin.com/CA/Menlo-Park/1304-Hollyburne-Ave-94025/home/2002174,MLSListings,ML81898680,N,Y,37.4764704,-122.1570201
PAST SALE,February-7-2022,Single Family Residential,90 Crescent Dr,Palo Alto,CA,94301,4150000,2,2.5,PALO ALTO,1769,9094,1960,,2346,,Sold,,,https://www.redfin.com/CA/Palo-Alto/90-Crescent-Dr-94301/home/1464760,MLSListings,ML81877303,N,Y,37.4571443,-122.1434469
PAST SALE,,Single Family Residential,2144 Cam De Los Robles,Menlo Park,CA,94025,4534000,4,3.0,,2625,6000,2007,,1727,,,,,https://www.redfin.com/CA/Menlo-Park/2144-Cam-De-Los-Robles-94025/home/1163353,,,N,Y,37.4341012,-122.2085914
PAST SALE,July-6-2022,Single Family Residential,440 University Dr,Menlo Park,CA,94025,2600000,2,1.0,MENLO PARK,870,5200,1940,,2989,,Sold,,,https://www.redfin.com/CA/Menlo-Park/440-University-Dr-94025/home/1479746,MLSListings,ML81899135,N,Y,37.446262,-122.1800373
PAST SALE,,Single Family Residential,819 Fifteenth Ave,Menlo Park,CA,94025,3520000,2,1.0,,880,6700,1950,,4000,,,,,https://www.redfin.com/CA/Menlo-Park/819-Fifteenth-Ave-94025/home/819683,,,N,Y,37.4766484,-122.1909455
PAST SALE,,Single Family Residential,10 Spiros Way,Menlo Park,CA,94025,4200000,4,3.0,,2410,10100,1963,,1743,,,,,https://www.redfin.com/CA/Menlo-Park/10-Spiros-Way-94025/home/1762027,,,N,Y,37.4377233,-122.2077411
PAST SALE,,Single Family Residential,3127 Barney Ave,Menlo Park,CA,94025,4845000,2,2.0,,1190,10010,1953,,4071,,,,,https://www.redfin.com/CA/Menlo-Park/3127-Barney-Ave-94025/home/1091388,,,N,Y,37.4368696,-122.2076161
PAST SALE,April-13-2022,Single Family Residential,816 Laurel Ave,Menlo Park,CA,94025,2300000,2,1.0,MENLO PARK,890,5203,1948,,2584,,Sold,,,https://www.redfin.com/CA/Menlo-Park/816-Laurel-Ave-94025/home/1567793,MLSListings,ML81876817,N,Y,37.4650606,-122.1536491
PAST SALE,,Single Family Residential,505 Central Ave,Menlo Park,CA,94025,3995000,4,3.0,,2443,7000,1926,,1635,,,,,https://www.redfin.com/CA/Menlo-Park/505-Central-Ave-94025/home/2048839,,,N,Y,37.460638,-122.153826
PAST SALE,February-11-2022,Single Family Residential,510 Gilbert Ave,Menlo Park,CA,94025,4225000,4,3.0,MENLO PARK,2548,7690,2008,,1658,,Sold,,,https://www.redfin.com/CA/Menlo-Park/510-Gilbert-Ave-94025/home/1379399,MLSListings,ML81872426,N,Y,37.4601376,-122.1595038
PAST SALE,March-11-2022,Single Family Residential,2315 Warner Range Ave,Menlo Park,CA,94025,10450000,6,6.5,MENLO PARK,6402,12210,2022,,1632,,Sold,,,https://www.redfin.com/CA/Menlo-Park/2315-Warner-Range-Ave-94025/home/899460,MLSListings,ML81880130,N,Y,37.4262529,-122.2044684
PAST SALE,April-11-2022,Single Family Residential,2813 Georgetown St,East Palo Alto,CA,94303,1000000,3,1.0,EAST PALO ALTO,1010,5775,1953,,990,,Sold,,,https://www.redfin.com/CA/East-Palo-Alto/2813-Georgetown-St-94303/home/1964008,MLSListings,ML81881564,N,Y,37.4810491,-122.1367484
PAST SALE,June-30-2022,Single Family Residential,2061 Gordon Ave,Menlo Park,CA,94025,3575000,4,3.0,MENLO PARK,2621,6000,2004,,1364,,Sold,,,https://www.redfin.com/CA/Menlo-Park/2061-Gordon-Ave-94025/home/1155225,MLSListings,ML81894434,N,Y,37.432683,-122.2016753
PAST SALE,March-11-2022,Single Family Residential,1145 Castle Way,Menlo Park,CA,94025,6000000,5,3.0,MENLO PARK,3061,9898,1951,,1960,,Sold,,,https://www.redfin.com/CA/Menlo-Park/1145-Castle-Way-94025/home/1038494,MLSListings,ML81881111,N,Y,37.4448737,-122.1868883
PAST SALE,June-16-2022,Single Family Residential,60 Gloria Cir,Menlo Park,CA,94025,5400000,4,3.0,MENLO PARK,2960,10543,1997,,1824,,Sold,,,https://www.redfin.com/CA/Menlo-Park/60-Gloria-Cir-94025/home/1898433,MLSListings,ML81891724,N,Y,37.4589512,-122.1713676
PAST SALE,April-20-2022,Single Family Residential,1130 Deanna Dr,Menlo Park,CA,94025,4300000,4,2.0,MENLO PARK,2550,10000,1974,,1686,,Sold,,,https://www.redfin.com/CA/Menlo-Park/1130-Deanna-Dr-94025/home/2047816,MLSListings,ML81882360,N,Y,37.4285503,-122.2078156
PAST SALE,February-28-2022,Single Family Residential,399 Camino Al Lago,Menlo Park,CA,94027,3440000,2,2.5,MENLO PARK,1720,10500,1954,,2000,,Sold,,,https://www.redfin.com/CA/Menlo-Park/399-Cam-Al-Lago-94027/home/1932384,MLSListings,ML81877145,N,Y,37.4354767,-122.2129359
PAST SALE,March-31-2022,Single Family Residential,1140 Berkeley Ave,Menlo Park,CA,94025,1375000,3,2.0,MENLO PARK,1350,5750,1950,,1019,,Sold,,,https://www.redfin.com/CA/Menlo-Park/1140-Berkeley-Ave-94025/home/857605,MLSListings,ML81880957,N,Y,37.4742416,-122.161278
PAST SALE,May-23-2022,Single Family Residential,5 Fennwood Dr,Atherton,CA,94027,8113000,5,6.0,ATHERTON,5080,36406,1942,,1597,,Sold,,,https://www.redfin.com/CA/Atherton/5-Fenwood-Dr-94027/home/2037555,MLSListings,ML81890991,N,Y,37.4610944,-122.1816337
PAST SALE,April-27-2022,Single Family Residential,454 Ninth Ave,Menlo Park,CA,94025,2810000,3,2.5,MENLO PARK,2075,9748,1980,,1354,,Sold,,,https://www.redfin.com/CA/Menlo-Park/454-9th-Ave-94025/home/2059175,MLSListings,ML81884473,Y,Y,37.47194,-122.1994141
PAST SALE,March-16-2022,Single Family Residential,99 Irving Ave,Atherton,CA,94027,5600000,5,4.0,ATHERTON,3230,52037,1956,,1734,,Sold,,,https://www.redfin.com/CA/Atherton/99-Irving-Ave-94027/home/1144845,MLSListings,ML81878673,N,Y,37.476313,-122.1864449
PAST SALE,June-22-2022,Single Family Residential,1055 Menlo Oaks Dr,Menlo Park,CA,94025,1800000,2,1.0,MENLO PARK,950,6900,1945,,1895,,Sold,,,https://www.redfin.com/CA/Menlo-Park/1055-Menlo-Oaks-Dr-94025/home/1071843,MLSListings,ML81892989,N,Y,37.4733469,-122.1644713
PAST SALE,,Single Family Residential,224 Morgan Ln,Menlo Park,CA,94025,2280000,4,4.0,,1819,2400,2008,,1253,,,,,https://www.redfin.com/CA/Menlo-Park/224-Morgan-Ln-94025/home/12545802,,,N,Y,37.4541596,-122.1673208
PAST SALE,May-20-2022,Single Family Residential,619 Partridge Ave,Menlo Park,CA,94025,3500000,4,4.5,MENLO PARK,2093,9450,2022,,1672,,Sold,,,https://www.redfin.com/CA/Menlo-Park/619-Partridge-Ave-94025/home/179086744,MLSListings,ML81887290,N,Y,37.448785,-122.175054
PAST SALE,October-17-2022,Single Family Residential,193 E Creek Dr,Menlo Park,CA,94025,5100000,4,3.5,MENLO PARK,3102,10150,1955,,1644,,Sold,,,https://www.redfin.com/CA/Menlo-Park/193-E-Creek-Dr-94025/home/2048841,MLSListings,ML81906094,N,Y,37.4514506,-122.1684406
PAST SALE,March-16-2022,Single Family Residential,379 Oconnor St,Menlo Park,CA,94025,2800000,3,2.0,MENLO PARK,1550,10809,1996,,1806,,Sold,,,https://www.redfin.com/CA/Menlo-Park/379-O-Connor-St-94025/home/2029953,MLSListings,ML81877859,Y,Y,37.4611994,-122.1469956
PAST SALE,April-8-2022,Single Family Residential,321 Nova Ln,Menlo Park,CA,94025,3950000,4,3.5,MENLO PARK,2367,6100,2021,,1669,,Sold,,,https://www.redfin.com/CA/Menlo-Park/321-Nova-Ln-94025/home/858545,MLSListings,ML81842160,N,Y,37.4591346,-122.1579958
PAST SALE,September-14-2022,Single Family Residential,153 Stone Pine Ln,Menlo Park,CA,94025,2800000,3,2.5,MENLO PARK,2625,1898,1964,,1067,31,Sold,,,https://www.redfin.com/CA/Menlo-Park/153-Stone-Pine-Ln-94025/home/1090548,MLSListings,ML81903642,N,Y,37.4592153,-122.1914222
PAST SALE,July-5-2022,Single Family Residential,830 Menlo Oaks Dr,Menlo Park,CA,94025,4554000,4,2.5,MENLO PARK,2630,27450,1949,,1732,,Sold,,,https://www.redfin.com/CA/Menlo-Park/830-Menlo-Oaks-Dr-94025/home/1892548,MLSListings,ML81897303,N,Y,37.4685964,-122.1664892
PAST SALE,February-7-2022,Single Family Residential,2014 Camino De Los Robles,Menlo Park,CA,94025,3825000,4,2.0,MENLO PARK,1940,6000,1965,,1972,,Sold,,,https://www.redfin.com/CA/Menlo-Park/2014-Cam-De-Los-Robles-94025/home/2051572,MLSListings,ML81875845,N,Y,37.4359453,-122.2070841
PAST SALE,,Single Family Residential,309 Princeton Rd,Menlo Park,CA,94025,3800000,2,1.0,,1030,7500,1941,,3689,,,,,https://www.redfin.com/CA/Menlo-Park/309-Princeton-Rd-94025/home/2020400,,,N,Y,37.443399,-122.1802147
PAST SALE,February-24-2022,Single Family Residential,1140 Henderson Ave,Menlo Park,CA,94025,1100000,2,1.0,MENLO PARK,770,5590,1950,,1429,,Sold,,,https://www.redfin.com/CA/Menlo-Park/1140-Henderson-Ave-94025/home/859731,MLSListings,ML81874387,N,Y,37.4741125,-122.1603466
PAST SALE,March-25-2022,Single Family Residential,43 Lorelei Ln,Menlo Park,CA,94025,2400000,3,2.0,MENLO PARK,1390,5000,1956,,1727,,Sold,,,https://www.redfin.com/CA/Menlo-Park/43-Lorelei-Ln-94025/home/851662,MLSListings,ML81878973,N,Y,37.4779182,-122.1838731
PAST SALE,March-17-2022,Single Family Residential,60 Riordan Pl,Menlo Park,CA,94025,5650000,4,3.5,MENLO PARK,3290,12266,1998,,1717,,Sold,,,https://www.redfin.com/CA/Menlo-Park/60-Riordan-Pl-94025/home/1926643,MLSListings,ML81881033,N,Y,37.4621427,-122.1648039
PAST SALE,March-11-2022,Single Family Residential,1868 Camino De Los Robles,Menlo Park,CA,94025,6009000,6,4.0,MENLO PARK,4340,12600,1953,,1385,,Sold,,,https://www.redfin.com/CA/Menlo-Park/1868-Cam-De-Los-Robles-94025/home/885332,MLSListings,ML81879814,N,Y,37.4390012,-122.2049782
PAST SALE,June-3-2022,Single Family Residential,410 9th Ave,Menlo Park,CA,94025,2200000,4,2.0,MENLO PARK,1750,6760,1932,,1257,,Sold,,,https://www.redfin.com/CA/Menlo-Park/410-9th-Ave-94025/home/1015584,MLSListings,ML81888598,N,Y,37.4707015,-122.2006556
PAST SALE,September-30-2022,Single Family Residential,467 8th Ave,Menlo Park,CA,94025,1775000,2,2.0,MENLO PARK,1370,5300,1948,,1296,,Sold,,,https://www.redfin.com/CA/Menlo-Park/467-Eighth-Ave-94025/home/2041217,MLSListings,ML81907566,N,Y,37.4729686,-122.2008329
PAST SALE,May-3-2022,Single Family Residential,843 14th Ave,Menlo Park,CA,94025,2200000,3,2.0,MENLO PARK,1252,5429,1950,,1757,,Sold,,,https://www.redfin.com/CA/Menlo-Park/843-Fourteenth-Ave-94025/home/2002165,MLSListings,ML81883620,Y,Y,37.4774571,-122.1905021
PAST SALE,March-1-2022,Single Family Residential,1335 Laurel St,Menlo Park,CA,94025,2800000,4,3.0,MENLO PARK,1735,8126,2021,,1614,,Sold,,,https://www.redfin.com/CA/Menlo-Park/1335-Laurel-St-94025/home/175693793,MLSListings,ML81875507,N,Y,37.4580452,-122.1847295
PAST SALE,December-2-2022,Single Family Residential,6 Maywood Ln,Menlo Park,CA,94025,5251000,2,2.0,MENLO PARK,1970,21360,1940,,2665,,Sold,,,https://www.redfin.com/CA/Menlo-Park/6-Maywood-Ln-94025/home/892951,MLSListings,ML81912812,N,Y,37.4416245,-122.1830971
PAST SALE,October-14-2022,Single Family Residential,276 Oakhurst Pl,Menlo Park,CA,94025,2495000,3,2.0,MENLO PARK,1470,6200,1948,,1697,,Sold,,,https://www.redfin.com/CA/Menlo-Park/276-Oakhurst-Pl-94025/home/2019990,MLSListings,ML81907419,N,Y,37.477062,-122.1741837
PAST SALE,April-1-2022,Single Family Residential,2060 Oakley Ave,Menlo Park,CA,94025,4650000,4,4.5,MENLO PARK,2902,6000,2022,,1602,,Sold,,,https://www.redfin.com/CA/Menlo-Park/2060-Oakley-Ave-94025/home/894453,MLSListings,ML81876710,N,Y,37.433858,-122.2038477
PAST SALE,February-10-2022,Single Family Residential,1030 Monte Rosa Dr,Menlo Park,CA,94025,5050000,5,4.5,MENLO PARK,2860,15180,1959,,1766,,Sold,,,https://www.redfin.com/CA/Menlo-Park/1030-Monte-Rosa-Dr-94025/home/899792,MLSListings,ML81873826,N,Y,37.4251133,-122.2085249
PAST SALE,April-1-2022,Single Family Residential,848 Cambridge Ave,Menlo Park,CA,94025,4750000,5,3.0,MENLO PARK,2583,7500,1929,,1839,,Sold,,,https://www.redfin.com/CA/Menlo-Park/848-Cambridge-Ave-94025/home/1601202,MLSListings,ML81879642,N,Y,37.4457125,-122.1766671
PAST SALE,August-16-2022,Single Family Residential,333 Linfield Pl,Menlo Park,CA,94025,3025000,3,2.0,MENLO PARK,1490,7700,1951,,2030,,Sold,,,https://www.redfin.com/CA/Menlo-Park/333-Linfield-Pl-94025/home/1295981,MLSListings,ML81899020,N,Y,37.4520564,-122.1698376
PAST SALE,August-26-2022,Single Family Residential,611 Menlo Oaks Dr,Menlo Park,CA,94025,4600000,3,2.0,MENLO PARK,1830,27100,1930,,2514,,Sold,,,https://www.redfin.com/CA/Menlo-Park/611-Menlo-Oaks-Dr-94025/home/854444,MLSListings,ML81901149,N,Y,37.4665002,-122.1692611
PAST SALE,May-27-2022,Single Family Residential,6 Knoll Vis,Atherton,CA,94027,9525000,7,7.5,ATHERTON,6130,71397,1986,,1554,,Sold,,,https://www.redfin.com/CA/Atherton/6-Knoll-Vis-94027/home/895164,MLSListings,ML81888406,N,Y,37.4290545,-122.2203833
PAST SALE,December-5-2022,Single Family Residential,490 Yale Rd,Menlo Park,CA,94025,2460000,3,2.0,MENLO PARK,1080,6500,1941,,2278,,Sold,,,https://www.redfin.com/CA/Menlo-Park/490-Yale-Rd-94025/home/1943183,MLSListings,ML81912820,N,Y,37.4455297,-122.1809686
PAST SALE,April-22-2022,Single Family Residential,2068 Sand Hill Rd,Menlo Park,CA,94025,2402000,3,2.0,MENLO PARK,1300,6300,1941,,1848,,Sold,,,https://www.redfin.com/CA/Menlo-Park/2068-Sand-Hill-Rd-94025/home/2020416,MLSListings,ML81885672,N,Y,37.4264775,-122.1921427
PAST SALE,August-1-2022,Single Family Residential,224C Oak Ct,Menlo Park,CA,94025,2104000,2,1.0,MENLO PARK,1320,6534,1954,,1594,,Sold,,,https://www.redfin.com/CA/Menlo-Park/224C-Oak-Ct-94025/unit-C/home/1488865,MLSListings,ML81897357,N,Y,37.4582568,-122.149657
PAST SALE,April-5-2022,Single Family Residential,1020 Berkeley Ave,Menlo Park,CA,94025,2340000,4,3.0,Menlo Park,2015,6150,1940,,1161,,Sold,,,https://www.redfin.com/CA/Menlo-Park/1020-Berkeley-Ave-94025/home/1974412,"bridgeMLS, Bay East AOR, or Contra Costa AOR",40983533,N,Y,37.4712105,-122.1628746
PAST SALE,May-31-2022,Single Family Residential,98 University Dr,Menlo Park,CA,94025,4335000,4,3.0,MENLO PARK,2875,11025,1934,,1508,,Sold,,,https://www.redfin.com/CA/Menlo-Park/98-University-Dr-94025/home/1259648,MLSListings,ML81888206,N,Y,37.4441167,-122.1760019
PAST SALE,January-25-2022,Single Family Residential,407 Laurel Ave,Menlo Park,CA,94025,4400000,5,4.5,MENLO PARK,2970,8750,1939,,1481,,Sold,,,https://www.redfin.com/CA/Menlo-Park/407-Laurel-Ave-94025/home/1742478,MLSListings,ML81873484,N,Y,37.4595303,-122.1553346
PAST SALE,,Single Family Residential,98 Fredrick Ave,Atherton,CA,94027,6630000,3,3.0,,3182,40250,1940,,2084,,,,,https://www.redfin.com/CA/Atherton/98-Fredrick-Ave-94027/home/2011837,,,N,Y,37.4706521,-122.1689063
PAST SALE,September-16-2022,Single Family Residential,3759 Bay Rd,Menlo Park,CA,94025,1470000,3,1.0,MENLO PARK,1070,6250,1950,,1374,,Sold,,,https://www.redfin.com/CA/Menlo-Park/3759-Bay-Rd-94025/home/1761137,MLSListings,ML81904129,N,Y,37.4774496,-122.1880634
PAST SALE,June-16-2022,Single Family Residential,611 Laurel Ave,Menlo Park,CA,94025,3250000,3,2.0,MENLO PARK,1620,11244,1949,,2006,,Sold,,,https://www.redfin.com/CA/Menlo-Park/611-Laurel-Ave-94025/home/1953052,MLSListings,ML81891533,N,Y,37.4624096,-122.1549797
PAST SALE,,Single Family Residential,810 University Dr,Menlo Park,CA,94025,1950000,4,3.0,,2237,5050,2016,,872,,,,,https://www.redfin.com/CA/Menlo-Park/810-University-Dr-94025/home/1343017,,,N,Y,37.4480847,-122.1834075
PAST SALE,March-18-2022,Single Family Residential,279 Willow Rd,Menlo Park,CA,94025,2957000,3,2.0,MENLO PARK,1610,10350,1940,,1837,,Sold,,,https://www.redfin.com/CA/Menlo-Park/279-Willow-Rd-94025/home/1735877,MLSListings,ML81876941,N,Y,37.4584759,-122.1623868
PAST SALE,April-19-2022,Single Family Residential,2071 Valparaiso Ave,Menlo Park,CA,94025,3200000,3,2.5,MENLO PARK,2000,6000,1977,,1600,,Sold,,,https://www.redfin.com/CA/Menlo-Park/2071-Valparaiso-Ave-94025/home/1100783,MLSListings,ML81879753,N,Y,37.4342881,-122.2052664
PAST SALE,May-6-2022,Single Family Residential,2190 Gordon Ave,Menlo Park,CA,94025,3263000,3,2.0,MENLO PARK,1380,6000,1954,,2364,,Sold,,,https://www.redfin.com/CA/Menlo-Park/2190-Gordon-Ave-94025/home/1904976,MLSListings,ML81885304,N,Y,37.4308481,-122.203892
PAST SALE,April-29-2022,Single Family Residential,900 Wallea Dr,Menlo Park,CA,94025,4611000,3,2.5,MENLO PARK,2270,10028,1948,,2031,,Sold,,,https://www.redfin.com/CA/Menlo-Park/900-Wallea-Dr-94025/home/1334160,MLSListings,ML81885799,N,Y,37.4437952,-122.1876643
PAST SALE,May-13-2022,Single Family Residential,700 Berkeley Ave,Menlo Park,CA,94025,4100000,3,2.5,MENLO PARK,1920,15300,1924,,2135,,Sold,,,https://www.redfin.com/CA/Menlo-Park/700-Berkeley-Ave-94025/home/1276806,MLSListings,ML81885999,Y,Y,37.4669002,-122.1647374
PAST SALE,May-26-2022,Single Family Residential,1775 Tulane Ave,East Palo Alto,CA,94303,730000,3,1.0,EAST PALO ALTO,1030,5750,1953,,709,,Sold,,,https://www.redfin.com/CA/East-Palo-Alto/1775-Tulane-Ave-94303/home/1221553,MLSListings,ML81891460,N,Y,37.4822363,-122.1355506
PAST SALE,March-2-2022,Single Family Residential,2270 Camino A Los Cerros,Menlo Park,CA,94025,5700000,5,4.5,MENLO PARK,3480,8800,2014,,1638,,Sold,,,https://www.redfin.com/CA/Menlo-Park/2270-Cno-A-Los-Cerros-94025/home/1743141,MLSListings,ML81877993,N,Y,37.433658,-122.2127586
PAST SALE,December-9-2022,Single Family Residential,3513 Oak Dr,Menlo Park,CA,94025,1500000,2,2.0,MENLO PARK,960,7800,1964,,1563,,Sold,,,https://www.redfin.com/CA/Menlo-Park/3513-Oak-Dr-94025/home/1213328,MLSListings,ML81912181,N,Y,37.4733297,-122.1986604
PAST SALE,December-2-2022,Single Family Residential,440 8th Ave,Menlo Park,CA,94025,3050000,5,3.5,MENLO PARK,2689,5350,2022,,1134,,Sold,,,https://www.redfin.com/CA/Menlo-Park/440-8th-Ave-94025/home/1213346,MLSListings,ML81911601,N,Y,37.4726741,-122.2004929
PAST SALE,March-30-2022,Single Family Residential,1351 Carlton Ave,Menlo Park,CA,94025,1880000,3,2.0,MENLO PARK,1450,6000,1950,,1297,,Sold,,,https://www.redfin.com/CA/Menlo-Park/1351-Carlton-Ave-94025/home/1173173,MLSListings,ML81881656,N,Y,37.4782215,-122.1534717
PAST SALE,March-16-2022,Single Family Residential,1010 Mallet Ct,Menlo Park,CA,94025,3152000,4,3.0,MENLO PARK,1604,3570,2022,,1965,,Sold,,,https://www.redfin.com/CA/Menlo-Park/1010-Mallet-Ct-94025/home/1286524,MLSListings,ML81877271,N,Y,37.4455409,-122.1832744
PAST SALE,June-17-2022,Single Family Residential,30 University Dr,Menlo Park,CA,94025,3750000,3,2.0,MENLO PARK,1730,6675,1950,,2168,,Sold,,,https://www.redfin.com/CA/Menlo-Park/30-University-Dr-94025/home/1609816,MLSListings,ML81891275,N,Y,37.4438768,-122.1755584
PAST SALE,April-7-2022,Single Family Residential,916 Laurel Ave,Menlo Park,CA,94025,2100916,2,1.0,MENLO PARK,1500,6050,1950,,1401,,Sold,,,https://www.redfin.com/CA/Menlo-Park/916-Laurel-Ave-94025/home/2011865,MLSListings,ML81882771,N,Y,37.4659998,-122.153516
PAST SALE,April-28-2022,Single Family Residential,1015 Mallet Ct,Menlo Park,CA,94025,2650000,2,1.5,MENLO PARK,1410,8363,1955,,1879,,Sold,,,https://www.redfin.com/CA/Menlo-Park/1015-Mallet-Ct-94025/home/1929297,MLSListings,ML81884828,N,Y,37.445359,-122.182929
PAST SALE,April-18-2022,Single Family Residential,116 Dunsmuir Way,Menlo Park,CA,94025,3340000,4,3.0,MENLO PARK,2470,5100,1951,,1352,,Sold,,,https://www.redfin.com/CA/Menlo-Park/116-Dunsmuir-Way-94025/home/1823480,MLSListings,ML81881604,N,Y,37.4767,-122.1769775
PAST SALE,July-12-2022,Single Family Residential,2465 Alpine Rd,Menlo Park,CA,94025,3300000,5,4.0,MENLO PARK,3530,8360,1948,,935,,Sold,,,https://www.redfin.com/CA/Menlo-Park/2465-Alpine-Rd-94025/home/900015,MLSListings,ML81895373,N,Y,37.4191163,-122.1908698
PAST SALE,May-23-2022,Single Family Residential,540 Kenwood Dr,Menlo Park,CA,94025,2800000,3,2.0,MENLO PARK,1300,5035,1945,,2154,,Sold,,,https://www.redfin.com/CA/Menlo-Park/540-Kenwood-Dr-94025/home/1016721,MLSListings,ML81886386,N,Y,37.4496355,-122.1787957
PAST SALE,March-8-2022,Single Family Residential,106 Clover Ln,Menlo Park,CA,94025,3389000,4,2.0,MENLO PARK,2140,6000,1929,,1584,,Sold,,,https://www.redfin.com/CA/Menlo-Park/106-Clover-Ln-94025/home/1871132,MLSListings,ML81875938,Y,Y,37.4552145,-122.1625198
PAST SALE,April-22-2022,Single Family Residential,1090 Lassen Dr,Menlo Park,CA,94025,9505000,4,4.5,MENLO PARK,4260,14050,2008,,2231,,Sold,,,https://www.redfin.com/CA/Menlo-Park/1090-Lassen-Dr-94025/home/897674,MLSListings,ML81885324,N,Y,37.4294139,-122.2138447
PAST SALE,March-1-2022,Single Family Residential,213 Mckendry Dr,Menlo Park,CA,94025,2280000,3,1.5,MENLO PARK,1150,5005,1947,,1983,,Sold,,,https://www.redfin.com/CA/Menlo-Park/213-McKendry-Dr-94025/home/1371475,MLSListings,ML81878338,Y,Y,37.4569462,-122.1621206
PAST SALE,March-23-2022,Single Family Residential,2 Brady Pl,Menlo Park,CA,94025,6000000,4,3.5,MENLO PARK,3040,10650,1997,,1974,,Sold,,,https://www.redfin.com/CA/Menlo-Park/2-Brady-Pl-94025/home/1845386,MLSListings,ML81880264,N,Y,37.4618531,-122.167731
PAST SALE,March-11-2022,Single Family Residential,433 Oconnor St,Menlo Park,CA,94025,3852000,5,3.5,MENLO PARK,2578,7875,2015,,1494,,Sold,,,https://www.redfin.com/CA/Menlo-Park/433-O-Connor-St-94025/home/44613466,MLSListings,ML81876289,N,Y,37.4608994,-122.1464411
PAST SALE,,Single Family Residential,170 Pineview Ln,Menlo Park,CA,94025,4100000,4,4.0,,2840,10000,1957,,1444,,,,,https://www.redfin.com/CA/Menlo-Park/170-Pineview-Ln-94025/home/1727063,,,N,Y,37.4394778,-122.2001929
PAST SALE,April-11-2022,Single Family Residential,2181 Cedar Ave,Menlo Park,CA,94025,5300000,5,4.5,MENLO PARK,3410,8250,2009,,1554,,Sold,,,https://www.redfin.com/CA/Menlo-Park/2181-Cedar-Ave-94025/home/1625869,MLSListings,ML81880829,N,Y,37.4329236,-122.2076604
PAST SALE,June-24-2022,Single Family Residential,590 Ringwood Ave,Menlo Park,CA,94025,3500000,3,2.5,MENLO PARK,2190,9625,1931,,1598,,Sold,,,https://www.redfin.com/CA/Menlo-Park/590-Ringwood-Ave-94025/home/1864725,MLSListings,ML81892419,N,Y,37.4660646,-122.1703254
PAST SALE,,Single Family Residential,232 Marmona Dr,Menlo Park,CA,94025,3300000,3,2.0,,1831,5580,1947,,1802,,,,,https://www.redfin.com/CA/Menlo-Park/232-Marmona-Dr-94025/home/858699,,,N,Y,37.4562037,-122.1601248
PAST SALE,June-28-2022,Single Family Residential,228 Hedge Rd,Menlo Park,CA,94025,1400000,3,1.0,MENLO PARK,1200,5500,1947,,1167,,Sold,,,https://www.redfin.com/CA/Menlo-Park/228-Hedge-Rd-94025/home/818703,MLSListings,ML81895346,N,Y,37.4781866,-122.1735628
PAST SALE,,Single Family Residential,1310 Bay Laurel Dr,Menlo Park,CA,94025,5650000,4,2.0,,2720,14700,1941,,2077,,,,,https://www.redfin.com/CA/Menlo-Park/1310-Bay-Laurel-Dr-94025/home/1776571,,,N,Y,37.4382357,-122.1838952
PAST SALE,July-29-2022,Single Family Residential,2030 Monterey Ave,Menlo Park,CA,94025,3800000,4,3.0,MENLO PARK,1850,6000,1952,,2054,,Sold,,,https://www.redfin.com/CA/Menlo-Park/2030-Monterey-Ave-94025/home/1343149,MLSListings,ML81897008,N,Y,37.4363498,-122.2079708
PAST SALE,November-2-2022,Single Family Residential,928 Laurel Ave,Menlo Park,CA,94025,1800000,2,2.0,MENLO PARK,1795,6050,1950,,1003,,Sold,,,https://www.redfin.com/CA/Menlo-Park/928-Laurel-Ave-94025/home/2011868,MLSListings,ML81908475,N,Y,37.4663773,-122.153383
PAST SALE,April-21-2022,Single Family Residential,2335 Crest Ln,Menlo Park,CA,94025,5900000,5,3.5,MENLO PARK,3700,13915,2000,,1595,,Sold,,,https://www.redfin.com/CA/Menlo-Park/2335-Crest-Ln-94025/home/899405,MLSListings,ML81882211,N,Y,37.425245,-122.2071063
PAST SALE,May-23-2022,Single Family Residential,233 Stanford Ave,Menlo Park,CA,94025,3210000,2,2.0,MENLO PARK,1607,5650,1948,,1998,,Sold,,,https://www.redfin.com/CA/Menlo-Park/233-Stanford-Ave-94025/home/1408225,MLSListings,ML81890690,N,Y,37.428104,-122.1942488
PAST SALE,March-23-2022,Single Family Residential,1139 Madera Ave,Menlo Park,CA,94025,1418000,3,1.0,Menlo Park,1070,5750,1951,,1325,,Sold,,,https://www.redfin.com/CA/Menlo-Park/1139-Madera-Ave-94025/home/2049625,San Francisco MLS,422628379,N,Y,37.4725911,-122.1574636
PAST SALE,November-9-2022,Single Family Residential,789 18th Ave,Menlo Park,CA,94025,1550000,2,2.0,MENLO PARK,970,5500,1958,,1598,,Sold,,,https://www.redfin.com/CA/Menlo-Park/789-18th-Ave-94025/home/2044544,MLSListings,ML81906470,N,Y,37.4751194,-122.1889914
PAST SALE,February-28-2022,Single Family Residential,1004 Greenwood Dr,Menlo Park,CA,94025,2430000,3,2.0,MENLO PARK,1530,6200,1950,,1588,,Sold,,,https://www.redfin.com/CA/Menlo-Park/1004-Greenwood-Dr-94025/home/1974021,MLSListings,ML81875142,Y,Y,37.4757727,-122.1749154
PAST SALE,May-12-2022,Single Family Residential,735 14th Ave,Menlo Park,CA,94025,2025000,3,2.0,MENLO PARK,1350,5350,1957,,1500,,Sold,,,https://www.redfin.com/CA/Menlo-Park/735-Fourteenth-Ave-94025/home/1991961,MLSListings,ML81885303,N,Y,37.4757319,-122.1928521
PAST SALE,May-6-2022,Single Family Residential,1368 Sevier Ave,Menlo Park,CA,94025,1800000,3,2.0,MENLO PARK,1210,5750,1949,,1488,,Sold,,,https://www.redfin.com/CA/Menlo-Park/1368-Sevier-Ave-94025/home/2053424,MLSListings,ML81884415,N,Y,37.4785905,-122.1548467
PAST SALE,April-15-2022,Single Family Residential,777 Woodland Ave,Menlo Park,CA,94025,3075000,3,2.0,MENLO PARK,1490,5445,1948,,2064,,Sold,,,https://www.redfin.com/CA/Menlo-Park/777-Woodland-Ave-94025/home/1836921,MLSListings,ML81882332,N,Y,37.4546681,-122.1572862
PAST SALE,April-18-2022,Single Family Residential,1055 Siskiyou Dr,Menlo Park,CA,94025,4175000,6,4.5,MENLO PARK,3420,15360,1964,,1221,,Sold,,,https://www.redfin.com/CA/Menlo-Park/1055-Siskiyou-Dr-94025/home/1626017,MLSListings,ML81881450,N,Y,37.4235319,-122.2150195
PAST SALE,June-16-2022,Single Family Residential,720 Hobart St,Menlo Park,CA,94025,9000000,6,5.5,MENLO PARK,4179,10710,2007,,2154,,Sold,,,https://www.redfin.com/CA/Menlo-Park/720-Hobart-St-94025/home/1926988,MLSListings,ML81891817,N,Y,37.4395708,-122.1895488
PAST SALE,April-26-2022,Single Family Residential,1026 Ringwood Ave,Menlo Park,CA,94025,3600000,3,3.0,MENLO PARK,1540,12250,1948,,2338,,Sold,,,https://www.redfin.com/CA/Menlo-Park/1026-Ringwood-Ave-94025/home/857708,MLSListings,ML81884216,N,Y,37.4721105,-122.1673097
PAST SALE,December-13-2022,Single Family Residential,383 Arlington Way,Menlo Park,CA,94025,8800000,6,6.5,MENLO PARK,6547,20000,2022,,1344,,Sold,,,https://www.redfin.com/CA/Menlo-Park/383-Arlington-Way-94025/home/1060568,MLSListings,ML81892271,N,Y,37.46242,-122.1697489
PAST SALE,August-18-2022,Single Family Residential,644 Harvard Ave,Menlo Park,CA,94025,3000000,4,4.0,MENLO PARK,2805,8400,2009,,1070,,Sold,,,https://www.redfin.com/CA/Menlo-Park/644-Harvard-Ave-94025/home/24544776,MLSListings,ML81899738,N,Y,37.4473148,-122.174228
PAST SALE,November-7-2022,Single Family Residential,204 Ballard Ln,Menlo Park,CA,94025,2350000,4,3.5,MENLO PARK,1945,3024,2008,,1208,240,Sold,,,https://www.redfin.com/CA/Menlo-Park/204-Ballard-Ln-94025/home/21967799,MLSListings,ML81910652,N,Y,37.4538301,-122.1679313
PAST SALE,April-21-2022,Single Family Residential,608 9th Ave,Menlo Park,CA,94025,1525000,2,1.0,MENLO PARK,780,3317,1956,,1955,,Sold,,,https://www.redfin.com/CA/Menlo-Park/608-9th-Ave-94025/home/2006004,MLSListings,ML81884232,N,Y,37.4751185,-122.1979178
PAST SALE,,Single Family Residential,2242 Avy Ave,Menlo Park,CA,94025,4125000,4,3.0,,3040,10200,1976,,1357,,,,,https://www.redfin.com/CA/Menlo-Park/2242-Avy-Ave-94025/home/900158,,,N,Y,37.4294819,-122.2052442
PAST SALE,,Single Family Residential,305 Gloria Cir,Menlo Park,CA,94025,5500000,3,4.0,,3040,14084,1997,,1809,,,,,https://www.redfin.com/CA/Menlo-Park/305-Gloria-Cir-94025/home/860234,,,N,Y,37.4591609,-122.1714785
PAST SALE,November-18-2022,Single Family Residential,296 Bay Rd,Atherton,CA,94027,4500000,5,2.5,ATHERTON,2630,40572,1957,,1711,,Sold,,,https://www.redfin.com/CA/Atherton/296-Bay-Rd-94027/home/853057,MLSListings,ML81909775,N,Y,37.4726294,-122.1702339
PAST SALE,June-10-2022,Single Family Residential,1145 Pine St,Menlo Park,CA,94025,2311500,3,2.5,MENLO PARK,2030,3136,1982,,1139,,Sold,,,https://www.redfin.com/CA/Menlo-Park/1145-Pine-St-94025/home/1767575,MLSListings,ML81890693,N,Y,37.4576686,-122.1813233
PAST SALE,March-15-2022,Single Family Residential,2150 Mills Ave,Menlo Park,CA,94025,4800000,4,4.0,MENLO PARK,2575,6000,1954,,1864,,Sold,,,https://www.redfin.com/CA/Menlo-Park/2150-Mills-Ave-94025/home/2009639,MLSListings,ML81878272,N,Y,37.4357299,-122.2122266
PAST SALE,October-18-2022,Single Family Residential,3 Isabella Ave,Atherton,CA,94027,5325000,4,3.5,ATHERTON,4350,19500,1990,,1224,,Sold,,,https://www.redfin.com/CA/Atherton/3-Isabella-Ave-94027/home/1240817,MLSListings,ML81905982,N,Y,37.459793,-122.1962662
PAST SALE,July-6-2022,Single Family Residential,360 Leland Ave,Menlo Park,CA,94025,6738000,6,5.5,MENLO PARK,3907,8000,2022,,1725,,Sold,,,https://www.redfin.com/CA/West-Menlo-Park/360-Leland-Ave-94025/home/1479865,MLSListings,ML81893691,N,Y,37.430192,-122.194112
PAST SALE,October-21-2022,Single Family Residential,263 Yale Rd,Menlo Park,CA,94025,3900000,4,3.0,MENLO PARK,2059,7500,1937,,1894,,Sold,,,https://www.redfin.com/CA/Menlo-Park/263-Yale-Rd-94025/home/1992171,MLSListings,ML81909247,N,Y,37.4439979,-122.1791061
PAST SALE,,Single Family Residential,990 Berkeley Ave,Menlo Park,CA,94025,4500000,4,4.0,,3050,16066,1938,,1475,,,,,https://www.redfin.com/CA/Menlo-Park/990-Berkeley-Ave-94025/home/1162585,,,N,Y,37.470207,-122.1630964
PAST SALE,April-28-2022,Single Family Residential,550 Kenwood Dr,Menlo Park,CA,94025,2468000,2,1.0,MENLO PARK,1050,5035,1945,,2350,,Sold,,,https://www.redfin.com/CA/Menlo-Park/550-Kenwood-Dr-94025/home/892410,MLSListings,ML81883128,N,Y,37.4497074,-122.1789287
PAST SALE,May-20-2022,Single Family Residential,256 Fulton St,Palo Alto,CA,94301,4000000,3,2.0,PALO ALTO,2055,5097,1979,,1946,,Sold,,,https://www.redfin.com/CA/Palo-Alto/256-Fulton-St-94301/home/1055152,MLSListings,ML81883633,N,Y,37.4529146,-122.1592377
PAST SALE,November-16-2022,Single Family Residential,689 University Dr,Menlo Park,CA,94025,4480000,4,4.0,MENLO PARK,2536,5136,2020,,1767,,Sold,,,https://www.redfin.com/CA/Menlo-Park/689-University-Dr-94025/home/1634216,MLSListings,ML81908134,N,Y,37.4470956,-122.1826012
PAST SALE,May-27-2022,Single Family Residential,248 San Mateo Dr,Menlo Park,CA,94025,5210000,3,2.0,MENLO PARK,1750,14000,1950,,2977,,Sold,,,https://www.redfin.com/CA/Menlo-Park/248-San-Mateo-Dr-94025/home/891434,MLSListings,ML81891888,N,Y,37.4407265,-122.1813677
PAST SALE,July-22-2022,Single Family Residential,1200 Santa Cruz Ave,Menlo Park,CA,94025,4125000,4,3.0,MENLO PARK,2320,20862,1973,,1778,,Sold,,,https://www.redfin.com/CA/Menlo-Park/1200-Santa-Cruz-Ave-94025/home/2015067,MLSListings,ML81891890,N,Y,37.4450213,-122.1903469
PAST SALE,March-2-2022,Single Family Residential,1024 Sevier Ave,Menlo Park,CA,94025,1496000,2,1.0,MENLO PARK,790,5750,1927,,1894,,Sold,,,https://www.redfin.com/CA/Menlo-Park/1024-Sevier-Ave-94025/home/1600730,MLSListings,ML81875514,N,Y,37.4703194,-122.159149
PAST SALE,,Single Family Residential,148 Hedge Rd,Menlo Park,CA,94025,2830000,3,2.0,,1921,5500,1947,,1473,,,,,https://www.redfin.com/CA/Menlo-Park/148-Hedge-Rd-94025/home/1268395,,,N,Y,37.4779564,-122.1766006
PAST SALE,,Single Family Residential,2355 Tioga Dr,Menlo Park,CA,94025,10000000,6,6.0,,4811,16553,2018,,2079,,,,,https://www.redfin.com/CA/Menlo-Park/2355-Tioga-Dr-94025/home/1718920,,,N,Y,37.4298394,-122.2149086
PAST SALE,April-26-2022,Single Family Residential,50 Walnut Ave,Atherton,CA,94027,6080000,4,3.5,ATHERTON,5090,13100,2005,,1194,,Sold,,,https://www.redfin.com/CA/Atherton/50-Walnut-Ave-94027/home/2044549,MLSListings,ML81882197,N,Y,37.4612443,-122.1955568
PAST SALE,June-16-2022,Single Family Residential,75 Riordan Pl,Menlo Park,CA,94025,5000000,4,3.0,MENLO PARK,2960,10974,1998,,1689,,Sold,,,https://www.redfin.com/CA/Menlo-Park/75-Riordan-Pl-94025/home/1850922,MLSListings,ML81891541,N,Y,37.4624271,-122.1643604
PAST SALE,April-4-2022,Single Family Residential,915 Millie Ave,Menlo Park,CA,94025,2900000,3,2.0,MENLO PARK,1660,7056,1963,,1747,,Sold,,,https://www.redfin.com/CA/Menlo-Park/915-Millie-Ave-94025/home/884757,MLSListings,ML81880505,N,Y,37.4505306,-122.1879304
PAST SALE,May-27-2022,Single Family Residential,376 McKendry Dr,Menlo Park,CA,94025,2450000,3,2.0,MENLO PARK,1150,4635,1944,,2130,,Sold,,,https://www.redfin.com/CA/Menlo-Park/376-McKendry-Dr-94025/home/1775917,MLSListings,ML81888459,N,Y,37.4591462,-122.1603022
PAST SALE,April-27-2022,Single Family Residential,1055 Berkeley Ave,Menlo Park,CA,94025,2000000,3,2.0,MENLO PARK,1516,9772,1945,,1319,,Sold,,,https://www.redfin.com/CA/Menlo-Park/1055-Berkeley-Ave-94025/home/1904415,MLSListings,ML81884201,N,Y,37.4727353,-122.1627859
PAST SALE,,Other,139 Oak Ct,Menlo Park,CA,94025,2285000,5,2.0,,1995,7250,1955,,1145,,,,,https://www.redfin.com/CA/Menlo-Park/139-Oak-Ct-94025/home/1932037,,,N,Y,37.4593913,-122.1518147
PAST SALE,September-28-2022,Single Family Residential,550 Menlo Oaks Dr,Menlo Park,CA,94025,3360000,3,1.5,MENLO PARK,1841,11940,1933,,1825,,Sold,,,https://www.redfin.com/CA/Menlo-Park/550-Menlo-Oaks-Dr-94025/home/1111731,MLSListings,ML81904670,Y,Y,37.464878,-122.168273
PAST SALE,May-13-2022,Single Family Residential,617 Partridge Ave,Menlo Park,CA,94025,3510000,4,3.0,MENLO PARK,2158,9450,2022,,1627,,Sold,,,https://www.redfin.com/CA/Menlo-Park/617-Partridge-Ave-94025/home/2027593,MLSListings,ML81887008,N,Y,37.4483257,-122.17537
PAST SALE,December-23-2022,Single Family Residential,1240 Hobart St,Menlo Park,CA,94025,4090000,4,3.0,MENLO PARK,2290,10137,1951,,1786,,Sold,,,https://www.redfin.com/CA/Menlo-Park/1240-Hobart-St-94025/home/885944,MLSListings,ML81912930,N,Y,37.4427099,-122.1951341
PAST SALE,,Single Family Residential,1221 Cotton St,Menlo Park,CA,94025,840000,3,2.0,,1890,10170,1951,,444,,,,,https://www.redfin.com/CA/Menlo-Park/1221-Cotton-St-94025/home/885901,,,N,Y,37.4428888,-122.1947144
PAST SALE,November-21-2022,Single Family Residential,470 6th Ave,Menlo Park,CA,94025,1431000,3,1.0,MENLO PARK,1043,6000,1941,,1372,,Sold,,,https://www.redfin.com/CA/Menlo-Park/470-Sixth-Ave-94025/home/1667733,MLSListings,ML81909258,N,Y,37.4736441,-122.2021211
PAST SALE,February-23-2022,Single Family Residential,608 Ivy Dr,Menlo Park,CA,94025,1635000,3,2.0,MENLO PARK,1660,5640,1951,,985,,Sold,,,https://www.redfin.com/CA/Menlo-Park/608-Ivy-Dr-94025/home/2052448,MLSListings,ML81875251,N,Y,37.475692,-122.1583507
PAST SALE,December-16-2022,Single Family Residential,163 Hedge Rd,Menlo Park,CA,94025,1450000,3,1.0,MENLO PARK,1190,5500,1947,,1218,,Sold,,,https://www.redfin.com/CA/Menlo-Park/163-Hedge-Rd-94025/home/818444,MLSListings,ML81912771,N,Y,37.4784207,-122.1764897
PAST SALE,August-8-2022,Single Family Residential,1046 Sonoma Ave,Menlo Park,CA,94025,2600000,3,2.0,MENLO PARK,1650,6000,1946,,1576,,Sold,,,https://www.redfin.com/CA/Menlo-Park/1046-Sonoma-Ave-94025/home/1135058,MLSListings,ML81900690,N,Y,37.473631,-122.1671245
PAST SALE,May-27-2022,Single Family Residential,201 Hillside Ave,Menlo Park,CA,94025,4800000,5,3.5,MENLO PARK,2588,26136,1973,,1855,,Sold,,,https://www.redfin.com/CA/Menlo-Park/201-Hillside-Ave-94025/home/1661169,MLSListings,ML81885190,N,Y,37.4331262,-122.2136452
PAST SALE,July-14-2022,Single Family Residential,164 Hedge Rd,Menlo Park,CA,94025,2250000,3,2.0,MENLO PARK,1210,5610,1947,,1860,,Sold,,,https://www.redfin.com/CA/Menlo-Park/164-Hedge-Rd-94025/home/2051424,MLSListings,ML81895955,N,Y,37.4780222,-122.175891
PAST SALE,July-22-2022,Single Family Residential,5 Wildwood Ln,Menlo Park,CA,94025,3970000,3,3.5,MENLO PARK,2500,7950,1985,,1588,,Sold,,,https://www.redfin.com/CA/Menlo-Park/5-Wildwood-Ln-94025/home/899999,MLSListings,ML81894939,N,Y,37.4185332,-122.1905465
PAST SALE,December-16-2022,Single Family Residential,2150 Camino A Los Cerros,Menlo Park,CA,94025,2529000,3,2.0,MENLO PARK,1390,6000,1963,,1819,,Sold,,,https://www.redfin.com/CA/Menlo-Park/2150-Cno-A-Los-Cerros-94025/home/1743117,MLSListings,ML81912884,N,Y,37.4353628,-122.21134
PAST SALE,March-9-2022,Single Family Residential,1080 Creek Dr,Menlo Park,CA,94025,4075920,3,1.5,MENLO PARK,1590,10458,1927,,2563,,Sold,,,https://www.redfin.com/CA/Menlo-Park/1080-Creek-Dr-94025/home/888635,MLSListings,ML81875433,N,Y,37.4416706,-122.1776427
PAST SALE,April-11-2022,Single Family Residential,1383 Madera Ave,Menlo Park,CA,94025,1501000,3,2.0,MENLO PARK,968,5760,1954,,1551,,Sold,,,https://www.redfin.com/CA/Menlo-Park/1383-Madera-Ave-94025/home/1574760,MLSListings,ML81877923,N,Y,37.4792342,-122.1539596
PAST SALE,,Single Family Residential,2142 Sterling Ave,Menlo Park,CA,94025,3650000,2,3.0,,2140,6000,1939,,1706,,,,,https://www.redfin.com/CA/Menlo-Park/2142-Sterling-Ave-94025/home/2044735,,,N,Y,37.4328874,-122.2059314
PAST SALE,July-1-2022,Single Family Residential,116 Oak Ct,Menlo Park,CA,94025,2110000,5,2.0,MENLO PARK,1984,7261,1926,,1064,,Sold,,,https://www.redfin.com/CA/Menlo-Park/116-Oak-Ct-94025/home/1710180,MLSListings,ML81891072,N,Y,37.4591377,-122.1521854
PAST SALE,May-25-2022,Single Family Residential,1431 Almanor Ave,Menlo Park,CA,94025,1180000,2,1.0,MENLO PARK,1380,4900,1951,,855,,Sold,,,https://www.redfin.com/CA/Menlo-Park/1431-Almanor-Ave-94025/home/820664,MLSListings,ML81887417,N,Y,37.4781424,-122.1632294
PAST SALE,October-7-2022,Single Family Residential,440 Santa Margarita Ave,Menlo Park,CA,94025,3270000,3,2.0,MENLO PARK,1893,6000,1952,,1727,,Sold,,,https://www.redfin.com/CA/Menlo-Park/440-Santa-Margarita-Ave-94025/home/2039365,MLSListings,ML81905645,N,Y,37.461078,-122.1621428
PAST SALE,,Single Family Residential,1451 Hill Ave,Menlo Park,CA,94025,1250000,3,1.0,,1050,5400,1950,,1190,,,,,https://www.redfin.com/CA/Menlo-Park/1451-Hill-Ave-94025/home/1212832,,,N,Y,37.478029,-122.1649591
PAST SALE,September-30-2022,Single Family Residential,146 Felton Dr,Menlo Park,CA,94025,3900000,4,2.0,MENLO PARK,2230,12040,1954,,1749,,Sold,,,https://www.redfin.com/CA/Menlo-Park/146-Felton-Dr-94025/home/852479,MLSListings,ML81905504,N,Y,37.4634616,-122.1876119
PAST SALE,November-7-2022,Single Family Residential,1009 Santa Cruz Ave,Menlo Park,CA,94025,2850000,3,2.5,MENLO PARK,1810,3778,2009,,1575,25,Sold,,,https://www.redfin.com/CA/Menlo-Park/1009-Santa-Cruz-Ave-94025/home/21938412,MLSListings,ML81910302,N,Y,37.4482895,-122.1870996
PAST SALE,September-9-2022,Single Family Residential,711 Middle Ave,Menlo Park,CA,94025,2675000,4,3.0,MENLO PARK,2050,7800,1940,,1305,,Sold,,,https://www.redfin.com/CA/Menlo-Park/711-Middle-Ave-94025/home/1584587,MLSListings,ML81903877,N,Y,37.4486226,-122.1783079
PAST SALE,February-2-2022,Single Family Residential,3749 Florence St,Redwood City,CA,94063,2730000,5,4.0,REDWOOD CITY,2381,9400,2021,,1147,,Sold,,,https://www.redfin.com/CA/Redwood-City/3749-Florence-St-94063/home/819914,MLSListings,ML81872835,N,Y,37.4791372,-122.1862676
PAST SALE,March-17-2022,Single Family Residential,815 Arbor Rd,Menlo Park,CA,94025,3000000,3,2.5,MENLO PARK,1190,6000,1951,,2521,,Sold,,,https://www.redfin.com/CA/Menlo-Park/815-Arbor-Rd-94025/home/890483,MLSListings,ML81879593,N,Y,37.445209,-122.1858463
PAST SALE,February-9-2022,Single Family Residential,168 Hillside Ave,Menlo Park,CA,94025,4850000,5,4.5,MENLO PARK,3822,9984,1966,,1269,,Sold,,,https://www.redfin.com/CA/Menlo-Park/168-Hillside-Ave-94025/home/1542671,MLSListings,ML81875415,N,Y,37.4337389,-122.2113843
PAST SALE,April-5-2022,Single Family Residential,1223 Whitaker Way,Menlo Park,CA,94025,4505000,5,3.0,MENLO PARK,2220,10100,1955,,2029,,Sold,,,https://www.redfin.com/CA/Menlo-Park/1223-Whitaker-Way-94025/home/1050734,MLSListings,ML81880976,N,Y,37.4385268,-122.1977293
PAST SALE,April-5-2022,Single Family Residential,2113 Mills Ave,Menlo Park,CA,94025,3062000,2,2.0,MENLO PARK,1447,5000,1968,,2116,,Sold,,,https://www.redfin.com/CA/Menlo-Park/2113-Mills-Ave-94025/home/1988680,MLSListings,ML81880047,N,Y,37.4358976,-122.2114287
PAST SALE,October-11-2022,Single Family Residential,804 17th Ave,Menlo Park,CA,94025,3292000,4,3.0,MENLO PARK,2446,6160,2015,,1346,,Sold,,,https://www.redfin.com/CA/Menlo-Park/804-17th-Ave-94025/home/1892290,MLSListings,ML81906532,N,Y,37.475425,-122.1893049
PAST SALE,June-2-2022,Single Family Residential,560 Kenwood Dr,Menlo Park,CA,94025,2850000,3,2.0,MENLO PARK,1560,5035,1945,,1827,,Sold,,,https://www.redfin.com/CA/Menlo-Park/560-Kenwood-Dr-94025/home/1455050,MLSListings,ML81889715,N,Y,37.4498039,-122.1791127
PAST SALE,December-30-2022,Single Family Residential,2020 Oakley Ave,Menlo Park,CA,94025,3210000,4,2.5,MENLO PARK,2341,6000,1990,,1371,,Sold,,,https://www.redfin.com/CA/Menlo-Park/2020-Oakley-Ave-94025/home/1072547,MLSListings,ML81912124,N,Y,37.4346666,-122.2031678
PAST SALE,September-7-2022,Single Family Residential,1060 Lemon St,Menlo Park,CA,94025,4650000,4,2.5,MENLO PARK,2550,10350,1958,,1824,,Sold,,,https://www.redfin.com/CA/Menlo-Park/1060-Lemon-St-94025/home/2051964,MLSListings,ML81891756,N,Y,37.4366582,-122.1958672
PAST SALE,November-2-2022,Single Family Residential,511 7th Ave,Menlo Park,CA,94025,1310000,3,1.5,MENLO PARK,970,6000,1937,,1351,,Sold,,,https://www.redfin.com/CA/Menlo-Park/511-Seventh-Ave-94025/home/1952903,MLSListings,ML81910365,N,Y,37.4743852,-122.2010989
PAST SALE,March-11-2022,Single Family Residential,1072 Tehama Ave,Menlo Park,CA,94025,3251000,3,2.0,MENLO PARK,1796,5900,1952,,1810,,Sold,,,https://www.redfin.com/CA/Menlo-Park/1072-Tehama-Ave-94025/home/2047730,MLSListings,ML81878908,N,Y,37.4747407,-122.1674649
PAST SALE,September-27-2022,Single Family Residential,381 Mckendry Dr,Menlo Park,CA,94025,2385000,3,2.0,MENLO PARK,1330,5005,1944,,1793,,Sold,,,https://www.redfin.com/CA/Menlo-Park/381-McKendry-Dr-94025/home/2057450,MLSListings,ML81902172,N,Y,37.4595236,-122.1601691
PAST SALE,August-23-2022,Single Family Residential,408 Grayson Ct,Menlo Park,CA,94025,2050000,3,2.0,MENLO PARK,1950,8300,1947,,1051,,Sold,,,https://www.redfin.com/CA/Menlo-Park/408-Grayson-Ct-94025/home/1886887,MLSListings,ML81901080,N,Y,37.4671063,-122.1554233
PAST SALE,August-5-2022,Single Family Residential,161 Stone Pine Ln,Menlo Park,CA,94025,2700000,3,2.5,MENLO PARK,2625,1898,1964,,1029,183,Sold,,,https://www.redfin.com/CA/Menlo-Park/161-Stone-Pine-Ln-94025/home/1625171,MLSListings,ML81897850,N,Y,37.4592782,-122.1914
PAST SALE,September-30-2022,Single Family Residential,1044 Menlo Oaks Dr,Menlo Park,CA,94025,2300000,3,2.0,MENLO PARK,1860,7150,1938,,1237,,Sold,,,https://www.redfin.com/CA/Menlo-Park/1044-Menlo-Oaks-Dr-94025/home/1295943,MLSListings,ML81904457,N,Y,37.4725097,-122.1645156
PAST SALE,April-18-2022,Single Family Residential,111 Dunsmuir Way,Menlo Park,CA,94025,2514000,5,2.0,MENLO PARK,1750,5772,1949,,1437,,Sold,,,https://www.redfin.com/CA/Menlo-Park/111-Dunsmuir-Way-94025/home/1685686,MLSListings,ML81881746,Y,Y,37.4770789,-122.176778
PAST SALE,April-12-2022,Single Family Residential,2307 Warner Range Ave,Menlo Park,CA,94025,4489000,4,2.5,MENLO PARK,2400,12576,1962,,1870,,Sold,,,https://www.redfin.com/CA/Menlo-Park/2307-Warner-Range-Ave-94025/home/2020428,MLSListings,ML81881195,N,Y,37.4267938,-122.2042911
PAST SALE,March-15-2022,Single Family Residential,1061 Lucky Ave,Menlo Park,CA,94025,4300000,4,4.5,MENLO PARK,3288,5000,2022,,1308,,Sold,,,https://www.redfin.com/CA/Menlo-Park/1061-Lucky-Ave-94025/home/1269451,MLSListings,ML81878433,N,Y,37.4321315,-122.2006556
PAST SALE,April-1-2022,Single Family Residential,112 Holland St,East Palo Alto,CA,94303,973000,2,1.0,EAST PALO ALTO,890,6120,1953,,1093,,Sold,,,https://www.redfin.com/CA/East-Palo-Alto/112-Holland-St-94303/home/1967893,MLSListings,ML81877525,N,Y,37.4680615,-122.1511652
PAST SALE,June-16-2022,Single Family Residential,4 Politzer Dr,Menlo Park,CA,94025,3890000,4,3.0,MENLO PARK,2340,10272,1957,,1662,,Sold,,,https://www.redfin.com/CA/Menlo-Park/4-Politzer-Dr-94025/home/2051544,MLSListings,ML81889576,N,Y,37.4395544,-122.1969978
PAST SALE,June-28-2022,Single Family Residential,1658 Purdue Ave,East Palo Alto,CA,94303,1200000,3,3.0,EAST PALO ALTO,1330,5000,1953,,902,,Sold,,,https://www.redfin.com/CA/East-Palo-Alto/1658-Purdue-Ave-94303/home/1516979,MLSListings,ML81894398,N,Y,37.4789649,-122.1384341
PAST SALE,June-22-2022,Single Family Residential,1318 Hollyburne Ave,Menlo Park,CA,94025,1470000,5,4.0,MENLO PARK,1725,5750,1951,,852,,Sold,,,https://www.redfin.com/CA/Menlo-Park/1318-Hollyburne-Ave-94025/home/1090014,MLSListings,ML81891181,N,Y,37.4769765,-122.1567096
PAST SALE,October-6-2022,Single Family Residential,958 Hermosa Way,Menlo Park,CA,94025,12200000,6,6.0,MENLO PARK,7040,21708,2009,,1733,,Sold,,,https://www.redfin.com/CA/Menlo-Park/958-Hermosa-Way-94025/home/2051557,MLSListings,ML81906531,N,Y,37.4425988,-122.1903691
PAST SALE,March-18-2022,Single Family Residential,2105 Monterey Ave,Menlo Park,CA,94025,4400000,4,4.5,MENLO PARK,2996,6692,2021,,1469,,Sold,,,https://www.redfin.com/CA/Menlo-Park/2105-Monterey-Ave-94025/home/2048931,MLSListings,ML81876917,N,Y,37.4350018,-122.2085085
PAST SALE,February-18-2022,Single Family Residential,1165 Hillview Dr,Menlo Park,CA,94025,4100000,4,2.0,MENLO PARK,1800,10010,1951,,2278,,Sold,,,https://www.redfin.com/CA/Menlo-Park/1165-Hillview-Dr-94025/home/1776444,MLSListings,ML81873966,N,Y,37.4410641,-122.194803
PAST SALE,October-28-2022,Single Family Residential,520 Kenwood Dr,Menlo Park,CA,94025,2075000,2,1.0,MENLO PARK,1050,5035,1945,,1976,,Sold,,,https://www.redfin.com/CA/Menlo-Park/520-Kenwood-Dr-94025/home/1557056,MLSListings,ML81907290,N,Y,37.4494301,-122.1784853
PAST SALE,March-28-2022,Single Family Residential,521 7th Ave,Menlo Park,CA,94025,1725000,3,2.0,MENLO PARK,1270,6000,1947,,1358,,Sold,,,https://www.redfin.com/CA/Menlo-Park/521-Seventh-Ave-94025/home/1999502,MLSListings,ML81878725,N,Y,37.474511,-122.2010546
PAST SALE,August-10-2022,Single Family Residential,1320 Cloud Ave,Menlo Park,CA,94025,2870000,3,2.0,MENLO PARK,1500,5000,2010,,1913,,Sold,,,https://www.redfin.com/CA/Menlo-Park/1320-Cloud-Ave-94025/home/1185278,MLSListings,ML81896287,N,Y,37.4351001,-122.2024644
PAST SALE,April-22-2022,Single Family Residential,323 Bay Rd,Menlo Park,CA,94025,2855000,3,2.0,MENLO PARK,1830,6900,1948,,1560,,Sold,,,https://www.redfin.com/CA/Menlo-Park/323-Bay-Rd-94025/home/1784733,MLSListings,ML81881178,N,Y,37.4724314,-122.1685958
PAST SALE,April-22-2022,Single Family Residential,212 Hedge Rd,Menlo Park,CA,94025,3000000,4,3.0,MENLO PARK,2235,5500,1947,,1342,,Sold,,,https://www.redfin.com/CA/Menlo-Park/212-Hedge-Rd-94025/home/1836406,MLSListings,ML81880109,N,Y,37.4781583,-122.1742724
PAST SALE,November-3-2022,Single Family Residential,1111 Madera Ave,Menlo Park,CA,94025,1150000,4,2.0,MENLO PARK,1180,5750,1950,,975,,Sold,,,https://www.redfin.com/CA/Menlo-Park/1111-Madera-Ave-94025/home/852755,MLSListings,ML81907133,N,Y,37.4715443,-122.1579515
PAST SALE,March-14-2022,Single Family Residential,548 6th Ave,Menlo Park,CA,94025,1700000,3,2.0,MENLO PARK,1360,7440,1948,,1250,,Sold,,,https://www.redfin.com/CA/Menlo-Park/548-Sixth-Ave-94025/home/2054373,MLSListings,ML81878833,N,Y,37.475321,-122.2010989
PAST SALE,August-9-2022,Single Family Residential,653 17th Ave,Menlo Park,CA,94025,1750000,3,2.0,MENLO PARK,2164,5850,1927,,809,,Sold,,,https://www.redfin.com/CA/Menlo-Park/653-17th-Ave-94025/home/1360856,MLSListings,ML81898332,N,Y,37.4732866,-122.1911672
PAST SALE,,Single Family Residential,935 Peninsula Way,Menlo Park,CA,94025,8800000,4,3.0,,6290,22000,1954,,1399,,,,,https://www.redfin.com/CA/Menlo-Park/935-Peninsula-Way-94025/home/2020192,,,N,Y,37.4650376,-122.1671101
PAST SALE,July-29-2022,Single Family Residential,2124 Ashton Ave,Menlo Park,CA,94025,4650000,4,4.5,MENLO PARK,2878,6000,2022,,1616,,Sold,,,https://www.redfin.com/CA/Menlo-Park/2124-Ashton-Ave-94025/home/894646,MLSListings,ML81882038,N,Y,37.4323463,-122.203892
PAST SALE,November-8-2022,Single Family Residential,665 Cambridge Ave,Menlo Park,CA,94025,4850000,5,4.0,MENLO PARK,2920,8100,2010,,1661,,Sold,,,https://www.redfin.com/CA/Menlo-Park/665-Cambridge-Ave-94025/home/2041360,MLSListings,ML81908476,N,Y,37.4472146,-122.1748045
PAST SALE,September-16-2022,Single Family Residential,7 Chateau Dr,Menlo Park,CA,94025,2725000,3,3.0,MENLO PARK,2050,2867,1980,,1329,712,Sold,,,https://www.redfin.com/CA/Menlo-Park/7-Chateau-Dr-94025/home/1185107,MLSListings,ML81903049,N,Y,37.4536405,-122.1884181
PAST SALE,June-10-2022,Single Family Residential,972 OLIVE St,Menlo Park,CA,94025,3975000,3,3.0,MENLO PARK,2426,10863,1941,,1638,,Sold,,,https://www.redfin.com/CA/Menlo-Park/972-Olive-St-94025/home/887250,MLSListings,ML81879899,N,Y,37.4400509,-122.1926526
PAST SALE,April-21-2022,Single Family Residential,884 15th Ave,Menlo Park,CA,94025,2170000,4,2.0,MENLO PARK,1670,5775,1949,,1299,,Sold,,,https://www.redfin.com/CA/Menlo-Park/884-Fifteenth-Ave-94025/home/2039251,MLSListings,ML81880224,N,Y,37.4761797,-122.1879304
PAST SALE,October-24-2022,Single Family Residential,854 Cambridge Ave,Menlo Park,CA,94025,2920000,4,3.0,MENLO PARK,1710,7560,1948,,1708,,Sold,,,https://www.redfin.com/CA/Menlo-Park/854-Cambridge-Ave-94025/home/887536,MLSListings,ML81907544,N,Y,37.4454714,-122.1768445
PAST SALE,April-25-2022,Single Family Residential,626 Central Ave,Menlo Park,CA,94025,2900000,3,3.0,MENLO PARK,1555,3780,1935,,1865,,Sold,,,https://www.redfin.com/CA/Menlo-Park/626-Central-Ave-94025/home/2014955,MLSListings,ML81883608,Y,Y,37.4625077,-122.1527207
PAST SALE,August-8-2022,Single Family Residential,1330 Sherman Ave,Menlo Park,CA,94025,4700000,5,3.5,MENLO PARK,2790,6875,1920,,1685,,Sold,,,https://www.redfin.com/CA/Menlo-Park/1330-Sherman-Ave-94025/home/1865141,MLSListings,ML81897553,N,Y,37.4360046,-122.2022073
PAST SALE,May-24-2022,Single Family Residential,1016 Alberni St,East Palo Alto,CA,94303,943000,3,1.0,EAST PALO ALTO,960,5340,1944,,982,,Sold,,,https://www.redfin.com/CA/East-Palo-Alto/1016-Alberni-St-94303/home/1470813,MLSListings,ML81885849,N,Y,37.4736117,-122.1513869
PAST SALE,April-27-2022,Single Family Residential,678 Hawthorne Ave,Palo Alto,CA,94301,2450000,2,2.0,PALO ALTO,773,2000,1927,,3169,,Sold,,,https://www.redfin.com/CA/Palo-Alto/678-Hawthorne-Ave-94301/home/585806,MLSListings,ML81884738,Y,Y,37.4526476,-122.1607696
PAST SALE,March-14-2022,Single Family Residential,1055 San Mateo Dr,Menlo Park,CA,94025,4500000,3,2.0,MENLO PARK,1850,11305,1950,,2432,,Sold,,,https://www.redfin.com/CA/Menlo-Park/1055-San-Mateo-Dr-94025/home/889440,MLSListings,ML81876184,N,Y,37.444371,-122.189837
PAST SALE,April-8-2022,Single Family Residential,8 Kirkwood Ct,East Palo Alto,CA,94303,1420000,3,2.0,EAST PALO ALTO,1150,6875,1956,,1235,,Sold,,,https://www.redfin.com/CA/East-Palo-Alto/8-Kirkwood-Ct-94303/home/2046682,MLSListings,ML81881910,N,Y,37.4747881,-122.1461528
PAST SALE,November-4-2022,Single Family Residential,702 Elizabeth Ln,Menlo Park,CA,94025,2005000,3,2.5,MENLO PARK,1590,1176,1989,,1261,,Sold,,,https://www.redfin.com/CA/Menlo-Park/702-Elizabeth-Ln-94025/home/2050684,MLSListings,ML81908609,N,Y,37.4533893,-122.1868107
PAST SALE,,Single Family Residential,517 Sandlewood St,Menlo Park,CA,94025,2010000,4,3.0,,1960,4041,2007,,1026,,,,,https://www.redfin.com/CA/Menlo-Park/517-Sandlewood-St-94025/home/17294368,,,N,Y,37.4796644,-122.1593264
PAST SALE,June-28-2022,Single Family Residential,629 Harvard Ave,Menlo Park,CA,94025,2978000,4,3.5,MENLO PARK,1989,9448,2016,,1497,,Sold,,,https://www.redfin.com/CA/Menlo-Park/629-Harvard-Ave-94025/home/144108546,MLSListings,ML81892237,N,Y,37.4471182,-122.1735185
PAST SALE,September-23-2022,Single Family Residential,1208 Hollyburne Ave,Menlo Park,CA,94025,1035000,3,1.0,MENLO PARK,1040,5750,1947,,995,,Sold,,,https://www.redfin.com/CA/Menlo-Park/1208-Hollyburne-Ave-94025/home/2027440,MLSListings,ML81905398,N,Y,37.4742989,-122.1581289
PAST SALE,March-23-2022,Single Family Residential,1280 Lincoln Ave,Palo Alto,CA,94301,5100000,4,4.0,PALO ALTO,3073,10305,1925,,1660,,Sold,,,https://www.redfin.com/CA/Palo-Alto/1280-Lincoln-Ave-94301/home/1715098,MLSListings,ML81878695,N,Y,37.4552749,-122.1467072
PAST SALE,June-17-2022,Single Family Residential,108 Clover Ln,Menlo Park,CA,94025,2800000,3,2.0,MENLO PARK,1540,6000,1965,,1818,,Sold,,,https://www.redfin.com/CA/Menlo-Park/108-Clover-Ln-94025/home/858661,MLSListings,ML81889327,N,Y,37.4552984,-122.162675
PAST SALE,May-20-2022,Single Family Residential,1 Hermosa Pl,Menlo Park,CA,94025,5450000,4,3.0,MENLO PARK,3110,10660,1941,,1752,,Sold,,,https://www.redfin.com/CA/Menlo-Park/1-Hermosa-Pl-94025/home/1489372,MLSListings,ML81882614,N,Y,37.4394946,-122.1851147
PAST SALE,August-8-2022,Single Family Residential,2030 Sand Hill Rd,Menlo Park,CA,94025,2730000,3,2.5,MENLO PARK,1515,5650,1929,,1802,,Sold,,,https://www.redfin.com/CA/Menlo-Park/2030-Sand-Hill-Rd-94025/home/896638,MLSListings,ML81897151,N,Y,37.4276805,-122.1913889
PAST SALE,September-15-2022,Single Family Residential,635 Pierce Rd,Menlo Park,CA,94025,1250000,3,2.0,MENLO PARK,1440,5673,1950,,868,,Sold,,,https://www.redfin.com/CA/Menlo-Park/635-Pierce-Rd-94025/unit-637/home/1037736,MLSListings,ML81902137,N,Y,37.4726702,-122.160657
PAST SALE,April-29-2022,Single Family Residential,932 Theresa Ct,Menlo Park,CA,94025,2650000,4,2.0,MENLO PARK,1760,7000,1974,,1506,,Sold,,,https://www.redfin.com/CA/Menlo-Park/932-Theresa-Ct-94025/home/2053491,MLSListings,ML81882072,N,Y,37.4782338,-122.1798156
PAST SALE,May-23-2022,Single Family Residential,887 Harvard Ave,Menlo Park,CA,94025,3325000,3,2.0,MENLO PARK,1380,5500,1938,,2409,,Sold,,,https://www.redfin.com/CA/Menlo-Park/887-Harvard-Ave-94025/home/1999868,MLSListings,ML81884242,N,Y,37.4444222,-122.1757358
PAST SALE,December-15-2022,Single Family Residential,711 Central Ave,Menlo Park,CA,94025,1875000,3,2.0,MENLO PARK,1690,10000,1947,,1109,,Sold,,,https://www.redfin.com/CA/Menlo-Park/711-Central-Ave-94025/home/1836893,MLSListings,ML81911707,N,Y,37.4636368,-122.1530789
PAST SALE,September-1-2022,Single Family Residential,355 Hedge Rd,Menlo Park,CA,94025,1600000,2,1.0,MENLO PARK,1230,5500,1950,,1301,,Sold,,,https://www.redfin.com/CA/Menlo-Park/355-Hedge-Rd-94025/home/1685724,MLSListings,ML81899807,N,Y,37.4758562,-122.1728533
PAST SALE,December-12-2022,Single Family Residential,48 Callie Ln,Menlo Park,CA,94025,1614875,3,2.0,MENLO PARK,1120,5360,1956,,1442,,Sold,,,https://www.redfin.com/CA/Menlo-Park/48-Callie-Ln-94025/home/1050058,MLSListings,ML81908466,N,Y,37.4769463,-122.1838065
PAST SALE,October-19-2022,Single Family Residential,1236 Sevier Ave,Menlo Park,CA,94025,1278000,3,2.0,MENLO PARK,1130,5750,1945,,1131,,Sold,,,https://www.redfin.com/CA/Menlo-Park/1236-Sevier-Ave-94025/home/1425040,MLSListings,ML81906688,N,Y,37.4750293,-122.1567096
PAST SALE,August-16-2022,Single Family Residential,1560 Kavanaugh Dr,East Palo Alto,CA,94303,970000,3,2.0,EAST PALO ALTO,1150,5600,1956,,843,,Sold,,,https://www.redfin.com/CA/East-Palo-Alto/1560-Kavanaugh-Dr-94303/home/1015920,MLSListings,ML81896070,N,Y,37.4752931,-122.1407853
PAST SALE,April-13-2022,Single Family Residential,912 Harmon Dr,Menlo Park,CA,94025,2600000,3,3.0,MENLO PARK,2200,5005,1956,,1182,,Sold,,,https://www.redfin.com/CA/Menlo-Park/912-Harmon-Dr-94025/home/1761616,MLSListings,ML81876232,Y,Y,37.4771812,-122.1816781
PAST SALE,June-21-2022,Single Family Residential,2021 Santa Cruz Ave,Menlo Park,CA,94025,2250000,3,1.5,MENLO PARK,1693,5650,1946,,1329,,Sold,,,https://www.redfin.com/CA/Menlo-Park/2021-Santa-Cruz-Ave-94025/home/1943224,MLSListings,ML81889036,N,Y,37.4310144,-122.1964436
PAST SALE,October-28-2022,Single Family Residential,520 Hobart St,Menlo Park,CA,94025,6350000,6,5.0,MENLO PARK,3718,10640,2022,,1708,,Sold,,,https://www.redfin.com/CA/Menlo-Park/520-Hobart-St-94025/home/1700928,MLSListings,ML81907929,N,Y,37.4384526,-122.18762
PAST SALE,July-20-2022,Single Family Residential,645 Evergreen St,Menlo Park,CA,94025,4800000,4,2.0,MENLO PARK,2361,10010,1950,,2033,,Sold,,,https://www.redfin.com/CA/Menlo-Park/645-Evergreen-St-94025/home/2046792,MLSListings,ML81888877,N,Y,37.4351935,-122.1921205
PAST SALE,August-9-2022,Single Family Residential,1960 Santa Cruz Ave,Menlo Park,CA,94025,2000000,3,2.0,MENLO PARK,1180,5500,1946,,1695,,Sold,,,https://www.redfin.com/CA/Menlo-Park/1960-Santa-Cruz-Ave-94025/home/1904849,MLSListings,ML81895094,N,Y,37.4340083,-122.1982392
PAST SALE,June-30-2022,Single Family Residential,7 Lassen Ct,Menlo Park,CA,94025,5400000,5,5.5,MENLO PARK,4370,17424,1966,,1236,,Sold,,,https://www.redfin.com/CA/Menlo-Park/7-Lassen-Ct-94025/home/897647,MLSListings,ML81887354,N,Y,37.4283188,-122.2147978
PAST SALE,December-9-2022,Single Family Residential,763 Cambridge Ave,Menlo Park,CA,94025,3350000,4,4.5,MENLO PARK,2400,8100,2017,,1396,,Sold,,,https://www.redfin.com/CA/Menlo-Park/763-Cambridge-Ave-94025/home/168639677,MLSListings,ML81911247,N,Y,37.4466792,-122.1754357
PAST SALE,September-22-2022,Single Family Residential,1375 Windermere Ave,Menlo Park,CA,94025,975000,3,1.0,Bellhaven,1130,6000,1947,,863,,Sold,,,https://www.redfin.com/CA/Menlo-Park/1375-Windermere-Ave-94025/home/821092,"bridgeMLS, Bay East AOR, or Contra Costa AOR",41002798,N,Y,37.4790376,-122.1571975
PAST SALE,July-5-2022,Single Family Residential,1371 Delfino Way,Menlo Park,CA,94025,3210000,3,2.0,MENLO PARK,1400,7544,1962,,2293,,Sold,,,https://www.redfin.com/CA/Menlo-Park/1371-Delfino-Way-94025/home/2044675,MLSListings,ML81890689,N,Y,37.4380795,-122.2015423
PAST SALE,October-3-2022,Single Family Residential,410 8th Ave,Menlo Park,CA,94025,1600000,5,3.5,MENLO PARK,2170,5350,1935,,737,,Sold,,,https://www.redfin.com/CA/Menlo-Park/410-Eighth-Ave-94025/home/848450,MLSListings,ML81904171,N,Y,37.4710339,-122.2014093
PAST SALE,March-18-2022,Single Family Residential,101 Green St,Menlo Park,CA,94025,1888888,2,1.0,Menlo Park,1120,5000,1950,,1687,,Sold,,,https://www.redfin.com/CA/Menlo-Park/101-Green-St-94025/home/2034478,CRMLS,OC22028182,N,Y,37.4650818,-122.1509877
PAST SALE,December-12-2022,Single Family Residential,1051 Ringwood Ave,Menlo Park,CA,94025,1735000,3,2.0,MENLO PARK,1320,6000,1946,,1314,,Sold,,,https://www.redfin.com/CA/Menlo-Park/1051-Ringwood-Ave-94025/home/1398165,MLSListings,ML81909967,N,Y,37.4740014,-122.1664098
PAST SALE,August-22-2022,Single Family Residential,750 San Benito Ave,Menlo Park,CA,94025,1450000,2,1.0,MENLO PARK,980,5350,1946,,1480,,Sold,,,https://www.redfin.com/CA/Menlo-Park/750-San-Benito-Ave-94025/home/1535079,MLSListings,ML81900787,N,Y,37.4761138,-122.1930738
PAST SALE,August-4-2022,Single Family Residential,1346 Hoover St,Menlo Park,CA,94025,2075000,2,1.5,Downtown Main St,1250,5900,1939,,1660,,Sold,,,https://www.redfin.com/CA/Menlo-Park/1346-Hoover-St-94025/home/1831287,"bridgeMLS, Bay East AOR, or Contra Costa AOR",40996915,N,Y,37.4548508,-122.187886
PAST SALE,October-31-2022,Single Family Residential,2033 Oakley Ave,Menlo Park,CA,94025,3050000,3,2.0,MENLO PARK,2420,6000,1932,,1260,,Sold,,,https://www.redfin.com/CA/Menlo-Park/2033-Oakley-Ave-94025/home/1916663,MLSListings,ML81906930,N,Y,37.4341784,-122.2029167
PAST SALE,August-3-2022,Single Family Residential,526 Central Ave,Menlo Park,CA,94025,2700000,3,2.0,MENLO PARK,1642,7000,1927,,1644,,Sold,,,https://www.redfin.com/CA/Menlo-Park/526-Central-Ave-94025/home/861167,MLSListings,ML81891877,N,Y,37.4612281,-122.1530725
PAST SALE,September-27-2022,Single Family Residential,1067 College Ave,Menlo Park,CA,94025,3500000,4,3.0,MENLO PARK,2350,10950,1941,,1489,,Sold,,,https://www.redfin.com/CA/Menlo-Park/1067-College-Ave-94025/home/1194811,MLSListings,ML81901250,N,Y,37.4438068,-122.1809686
PAST SALE,November-22-2022,Single Family Residential,548 Placitas Ave,Menlo Park,CA,94025,3550000,4,3.5,MENLO PARK,3585,8800,1997,,990,,Sold,,,https://www.redfin.com/CA/Menlo-Park/548-Placitas-Ave-94025/home/1516715,MLSListings,ML81907757,N,Y,37.4734258,-122.1955125
PAST SALE,September-16-2022,Single Family Residential,279 Hedge Rd,Menlo Park,CA,94025,1560000,3,1.0,MENLO PARK,1640,5500,1947,,951,,Sold,,,https://www.redfin.com/CA/Menlo-Park/279-Hedge-Rd-94025/home/820826,MLSListings,ML81899435,N,Y,37.4779047,-122.1716559
PAST SALE,August-8-2022,Single Family Residential,1328 Carlton Ave,Menlo Park,CA,94025,1150000,4,2.0,MENLO PARK,1340,6000,1950,,858,,Sold,,,https://www.redfin.com/CA/Menlo-Park/1328-Carlton-Ave-94025/home/1876304,MLSListings,ML81896996,N,Y,37.4770232,-122.1534717
PAST SALE,August-22-2022,Single Family Residential,2813 Fordham St,East Palo Alto,CA,94303,800000,3,1.0,EAST PALO ALTO,1030,5000,1953,,777,,Sold,,,https://www.redfin.com/CA/East-Palo-Alto/2813-Fordham-St-94303/home/860928,MLSListings,ML81897831,N,Y,37.4808478,-122.1356836
PAST SALE,October-27-2022,Single Family Residential,851 Stanford Ave,Menlo Park,CA,94025,3550000,3,2.0,MENLO PARK,1720,10028,1950,,2064,,Sold,,,https://www.redfin.com/CA/Menlo-Park/851-Stanford-Ave-94025/home/2055400,MLSListings,ML81903623,N,Y,37.4336872,-122.195845
PAST SALE,August-25-2022,Single Family Residential,390 Palo Alto Ave,Palo Alto,CA,94301,4300000,4,3.0,PALO ALTO,2418,7188,1938,,1778,,Sold,,,https://www.redfin.com/CA/Palo-Alto/390-Palo-Alto-Ave-94301/home/1391000,MLSListings,ML81897983,N,Y,37.4502137,-122.1665003
PAST SALE,November-15-2022,Single Family Residential,1289 Woodland Ave,Menlo Park,CA,94025,3900000,4,3.0,MENLO PARK,2520,12545,1956,,1548,,Sold,,,https://www.redfin.com/CA/Menlo-Park/1289-Woodland-Ave-94025/home/1269037,MLSListings,ML81909234,N,Y,37.4579499,-122.1499897
PAST SALE,November-10-2022,Single Family Residential,866 Hermosa Way,Menlo Park,CA,94025,8100000,4,4.5,MENLO PARK,3827,21708,1925,,2117,,Sold,,,https://www.redfin.com/CA/Menlo-Park/866-Hermosa-Way-94025/home/1601197,MLSListings,ML81909243,N,Y,37.4420967,-122.1893714
PAST SALE,June-15-2022,Single Family Residential,1516 San Antonio Ave,Menlo Park,CA,94025,1650000,3,2.5,MENLO PARK,1570,975,1988,,1051,,Sold,,,https://www.redfin.com/CA/Menlo-Park/1516-San-Antonio-St-94025/home/858902,MLSListings,ML81886905,N,Y,37.4578422,-122.1886398
PAST SALE,November-17-2022,Single Family Residential,765 14th Ave,Menlo Park,CA,94025,3245000,4,4.5,MENLO PARK,2878,5350,2022,,1128,,Sold,,,https://www.redfin.com/CA/Menlo-Park/765-Fourteenth-Ave-94025/home/1836695,MLSListings,ML81908102,N,Y,37.4760847,-122.1926661
PAST SALE,,Single Family Residential,636 Eighth Ave,Menlo Park,CA,94025,2000000,4,3.0,,1470,4458,1952,,1361,,,,,https://www.redfin.com/CA/Menlo-Park/636-Eighth-Ave-94025/home/847279,,,N,Y,37.475817,-122.1984831
PAST SALE,February-10-2022,Single Family Residential,413 6th Ave,Menlo Park,CA,94025,1450000,4,2.0,MENLO PARK,1290,10914,1927,,1124,,Sold,,,https://www.redfin.com/CA/Menlo-Park/413-Sixth-Ave-94025/home/1761540,MLSListings,ML81870528,N,Y,37.4723334,-122.2035374
PAST SALE,September-19-2022,Single Family Residential,1135 Madera Ave,Menlo Park,CA,94025,1360000,5,2.0,MENLO PARK,1630,5750,1951,,834,,Sold,,,https://www.redfin.com/CA/Menlo-Park/1135-Madera-Ave-94025/home/852731,MLSListings,ML81901023,N,Y,37.4724653,-122.1575079
PAST SALE,,Single Family Residential,941 Menlo Oaks Dr,Menlo Park,CA,94025,3800000,4,3.0,,4220,24683,1990,,900,,,,,https://www.redfin.com/CA/Menlo-Park/941-Menlo-Oaks-Dr-94025/home/2022069,,,N,Y,37.470283,-122.1664227
PAST SALE,November-10-2022,Single Family Residential,218 Stanford Ave,Menlo Park,CA,94025,3600000,4,3.0,MENLO PARK,2525,5650,1945,,1426,,Sold,,,https://www.redfin.com/CA/Menlo-Park/218-Stanford-Ave-94025/home/1334305,MLSListings,ML81900610,N,Y,37.4281522,-122.1936329
PAST SALE,October-31-2022,Single Family Residential,2319 Warner Range Ave,Menlo Park,CA,94025,3925000,3,2.0,MENLO PARK,2010,13794,1959,,1953,,Sold,,,https://www.redfin.com/CA/Menlo-Park/2319-Warner-Range-Ave-94025/home/1463538,MLSListings,ML81906967,N,Y,37.4259997,-122.2046236
PAST SALE,August-25-2022,Single Family Residential,710 Vine St,Menlo Park,CA,94025,3000000,3,2.0,MENLO PARK,2550,10000,1956,,1176,,Sold,,,https://www.redfin.com/CA/Menlo-Park/710-Vine-St-94025/home/1222029,MLSListings,ML81899947,N,Y,37.4313346,-122.1949582
PAST SALE,November-18-2022,Single Family Residential,2110 Prospect St,Menlo Park,CA,94025,6645000,5,5.5,MENLO PARK,4207,10012,2022,,1580,,Sold,,,https://www.redfin.com/CA/Menlo-Park/2110-Prospect-St-94025/home/895356,MLSListings,ML81885554,N,Y,37.4307111,-122.2005226
PAST SALE,December-2-2022,Single Family Residential,316 Laurel Ave,Menlo Park,CA,94025,2740000,3,2.0,MENLO PARK,1955,7840,1953,,1402,,Sold,,,https://www.redfin.com/CA/Menlo-Park/316-Laurel-Ave-94025/home/859469,MLSListings,ML81907758,N,Y,37.4583464,-122.1550756
PAST SALE,September-15-2022,Single Family Residential,2081 Camino Al Lago,Menlo Park,CA,94027,3090000,3,2.0,MENLO PARK,1565,6000,1947,,1974,,Sold,,,https://www.redfin.com/CA/Menlo-Park/2081-Cam-Al-Lago-94027/home/1155234,MLSListings,ML81900627,N,Y,37.4372189,-122.2115173
PAST SALE,May-3-2022,Single Family Residential,103 Stanford Ave,Menlo Park,CA,94025,4100000,4,3.0,MENLO PARK,2655,6000,2020,,1544,,Sold,,,https://www.redfin.com/CA/Menlo-Park/103-Stanford-Ave-94025/home/1644499,MLSListings,ML81879215,N,Y,37.4266274,-122.1921427
PAST SALE,August-17-2022,Single Family Residential,1276 Carlton Ave,Menlo Park,CA,94025,1030000,3,1.5,MENLO PARK,1130,6000,1949,,912,,Sold,,,https://www.redfin.com/CA/Menlo-Park/1276-Carlton-Ave-94025/home/2002374,MLSListings,ML81897124,N,Y,37.4755586,-122.1542257
PAST SALE,,Single Family Residential,800 Wallea Dr,Menlo Park,CA,94025,5800000,4,3.0,,2630,10115,1950,,2205,,,,,https://www.redfin.com/CA/Menlo-Park/800-Wallea-Dr-94025/home/890473,,,N,Y,37.443374,-122.1869549
PAST SALE,May-16-2022,Single Family Residential,3 Robert Dr S,Menlo Park,CA,94025,10100000,4,5.5,MENLO PARK,3500,31799,1949,,2886,,Sold,,,https://www.redfin.com/CA/Menlo-Park/3-S-Robert-Dr-94025/home/886308,MLSListings,ML81885330,N,Y,37.4448005,-122.1952021
PAST SALE,October-31-2022,Single Family Residential,424 5th Ave,Redwood City,CA,94063,940000,2,1.0,REDWOOD CITY,1000,3000,1959,,940,,Sold,,,https://www.redfin.com/CA/Redwood-City/424-Fifth-Ave-94063/home/845710,MLSListings,ML81905561,N,Y,37.4728912,-122.2037036
PAST SALE,April-1-2022,Single Family Residential,1236 Hoover St,Menlo Park,CA,94025,2625000,3,3.0,MENLO PARK,1632,11508,2013,,1608,109,Sold,,,https://www.redfin.com/CA/Menlo-Park/1236-Hoover-St-94025/home/104139233,MLSListings,ML81877253,N,Y,37.4538618,-122.1856806
PAST SALE,March-29-2022,Single Family Residential,1260 University Ave,Palo Alto,CA,94301,3350000,3,2.0,PALO ALTO,1665,6630,1952,,2012,,Sold,,,https://www.redfin.com/CA/Palo-Alto/1260-University-Ave-94301/home/1573688,MLSListings,ML81874557,N,Y,37.4554239,-122.1501671
PAST SALE,November-15-2022,Single Family Residential,206 Ravenswood Ave,Menlo Park,CA,94025,1455000,4,3.0,MENLO PARK,1760,2100,1964,,827,300,Sold,,,https://www.redfin.com/CA/Menlo-Park/206-Ravenswood-Ave-94025/home/1295842,MLSListings,ML81906098,N,Y,37.458166,-122.1779424
PAST SALE,February-23-2022,Single Family Residential,2779 Xavier St,East Palo Alto,CA,94303,940000,3,1.0,EAST PALO ALTO,1050,9583,1953,,895,,Sold,,,https://www.redfin.com/CA/East-Palo-Alto/2779-Xavier-St-94303/home/1793493,MLSListings,ML81872429,N,Y,37.480812,-122.139147
PAST SALE,September-22-2022,Single Family Residential,865 Menlo Oaks Dr,Menlo Park,CA,94025,5900000,5,3.0,MENLO PARK,4093,20700,1999,,1441,,Sold,,,https://www.redfin.com/CA/Menlo-Park/865-Menlo-Oaks-Dr-94025/home/856757,MLSListings,ML81897533,N,Y,37.4692184,-122.1677088
PAST SALE,June-8-2022,Single Family Residential,27 Crescent Dr,Palo Alto,CA,94301,6902000,4,4.0,PALO ALTO,4540,44218,1935,,1520,,Sold,,,https://www.redfin.com/CA/Palo-Alto/27-Crescent-Dr-94301/home/966412,MLSListings,ML81883050,N,Y,37.4569584,-122.1456648
PAST SALE,March-10-2022,Single Family Residential,725 Coleman Ave,Menlo Park,CA,94025,2900000,3,2.0,MENLO PARK,1500,7680,1955,,1933,,Sold,,,https://www.redfin.com/CA/Menlo-Park/725-Coleman-Ave-94025/home/2052457,MLSListings,ML81874081,N,Y,37.4618495,-122.1622537
PAST SALE,,Single Family Residential,1194 Saratoga Ave,East Palo Alto,CA,94303,523000,4,3.0,,1570,5800,,,333,,,,,https://www.redfin.com/CA/East-Palo-Alto/1194-Saratoga-Ave-94303/home/1784656,,,N,Y,37.4720402,-122.1537556
PAST SALE,November-29-2022,Single Family Residential,1380 N Lemon Ave,Menlo Park,CA,94025,4000000,5,3.0,MENLO PARK,2540,10080,1957,,1575,,Sold,,,https://www.redfin.com/CA/Menlo-Park/1380-N-Lemon-Ave-94025/home/1269278,MLSListings,ML81908292,N,Y,37.4390906,-122.2009881
PAST SALE,August-29-2022,Single Family Residential,1145 Henderson Ave,Menlo Park,CA,94025,1180000,4,2.0,Newbridge Park,1470,5750,1950,,803,,Sold,,,https://www.redfin.com/CA/Menlo-Park/1145-Henderson-Ave-94025/home/1761733,"bridgeMLS, Bay East AOR, or Contra Costa AOR",40997714,N,Y,37.4743657,-122.1607457
PAST SALE,June-7-2022,Single Family Residential,1213 Jervis Ave,East Palo Alto,CA,94303,1090000,3,2.0,EAST PALO ALTO,1180,5800,1950,,924,,Sold,,,https://www.redfin.com/CA/East-Palo-Alto/1213-Jervis-Ave-94303/home/1882309,MLSListings,ML81886120,N,Y,37.4725379,-122.1519636
PAST SALE,,Single Family Residential,830 Cambridge Ave,Menlo Park,CA,94025,4375000,4,4.0,,2610,7500,1941,,1676,,,,,https://www.redfin.com/CA/Menlo-Park/830-Cambridge-Ave-94025/home/1269376,,,N,Y,37.4458893,-122.1765784
PAST SALE,August-16-2022,Single Family Residential,423 8th Ave,Menlo Park,CA,94025,1761000,3,2.0,MENLO PARK,1570,5300,1940,,1122,,Sold,,,https://www.redfin.com/CA/Menlo-Park/423-Eighth-Ave-94025/home/1633628,MLSListings,ML81893737,N,Y,37.4719189,-122.2014536
PAST SALE,March-21-2022,Single Family Residential,101 Garden St,East Palo Alto,CA,94303,1200000,3,1.0,EAST PALO ALTO,1570,5000,1963,,764,,Sold,,,https://www.redfin.com/CA/East-Palo-Alto/101-Garden-St-94303/home/1285998,MLSListings,ML81876076,N,Y,37.467793,-122.1503224
PAST SALE,August-31-2022,Single Family Residential,1358 Sevier Ave,Menlo Park,CA,94025,1100000,3,1.0,MENLO PARK,1130,5750,1946,,973,,Sold,,,https://www.redfin.com/CA/Menlo-Park/1358-Sevier-Ave-94025/home/1591648,MLSListings,ML81896692,N,Y,37.4782101,-122.1551128
PAST SALE,March-24-2022,Single Family Residential,308 Donohoe St,East Palo Alto,CA,94303,1600000,4,2.5,East Palo Alto,1800,4965,1987,,889,,Sold,,,https://www.redfin.com/CA/East-Palo-Alto/308-Donohoe-St-94303/home/2037625,San Francisco MLS,421618493,N,Y,37.46286,-122.1481267
PAST SALE,September-2-2022,Single Family Residential,208 Willow Rd,Menlo Park,CA,94025,1910000,3,1.5,MENLO PARK,1150,5005,1947,,1661,,Sold,,,https://www.redfin.com/CA/Menlo-Park/208-Willow-Rd-94025/home/1124536,MLSListings,ML81899682,N,Y,37.4567232,-122.1626085
PAST SALE,September-13-2022,Single Family Residential,141 Hamilton Ave,Menlo Park,CA,94025,1125000,3,1.5,MENLO PARK,910,4840,1954,,1236,,Sold,,,https://www.redfin.com/CA/Menlo-Park/141-Hamilton-Ave-94025/home/2005832,MLSListings,ML81900526,N,Y,37.476843,-122.1655357
PAST SALE,January-12-2023,Single Family Residential,2544 Emmett Way,East Palo Alto,CA,94303,855000,3,2.0,EAST PALO ALTO,1090,5000,1956,,784,,Sold,,,https://www.redfin.com/CA/East-Palo-Alto/2544-Emmett-Way-94303/home/1609378,MLSListings,ML81901954,N,Y,37.4743773,-122.1398537
PAST SALE,June-14-2022,Single Family Residential,1226 Laurel Ave,East Palo Alto,CA,94303,1350000,4,2.5,EAST PALO ALTO,1867,6000,1944,,723,,Sold,,,https://www.redfin.com/CA/East-Palo-Alto/1226-Laurel-Ave-94303/home/1258953,MLSListings,ML81879646,N,Y,37.472332,-122.1505442
PAST SALE,August-12-2022,Single Family Residential,360 Encinal Ave,Menlo Park,CA,94025,4500000,5,3.5,MENLO PARK,3030,10000,1937,,1485,,Sold,,,https://www.redfin.com/CA/Menlo-Park/360-Encinal-Ave-94025/home/1667876,MLSListings,ML81893044,N,Y,37.4602822,-122.188928
PAST SALE,October-24-2022,Single Family Residential,1451 Kavanaugh Dr,East Palo Alto,CA,94303,1180000,3,2.5,EAST PALO ALTO,1880,5000,1956,,628,,Sold,,,https://www.redfin.com/CA/East-Palo-Alto/1451-Kavanaugh-Dr-94303/home/1276927,MLSListings,ML81905395,N,Y,37.4755465,-122.1440235
PAST SALE,January-6-2023,Single Family Residential,2033 Poplar Ave,East Palo Alto,CA,94303,1115250,3,3.5,EAST PALO ALTO,2660,6200,1999,,419,,Sold,,,https://www.redfin.com/CA/East-Palo-Alto/2033-Poplar-Ave-94303/home/1072016,MLSListings,ML81910631,N,Y,37.4655669,-122.1504998
PAST SALE,June-13-2022,Single Family Residential,1970 Menalto Ave,Menlo Park,CA,94025,1770000,3,2.0,MENLO PARK,1236,3337,1950,,1432,,Sold,,,https://www.redfin.com/CA/Menlo-Park/1970-Menalto-Ave-94025/home/172106252,MLSListings,ML81881189,N,Y,37.4606657,-122.1519636
PAST SALE,July-1-2022,Single Family Residential,1394 San Mateo Dr,Menlo Park,CA,94025,16750000,7,6.5,MENLO PARK,7459,40313,2020,,2246,,Sold,,,https://www.redfin.com/CA/Menlo-Park/1394-San-Mateo-Dr-94025/home/1408042,MLSListings,ML81886413,N,Y,37.4477888,-122.1938719
PAST SALE,September-29-2022,Single Family Residential,1372 Johnson St,Menlo Park,CA,94025,5100000,4,4.0,MENLO PARK,3475,5750,1999,,1468,,Sold,,,https://www.redfin.com/CA/Menlo-Park/1372-Johnson-St-94025/home/1909804,MLSListings,ML81897719,N,Y,37.4508877,-122.1909455
PAST SALE,,Single Family Residential,69 Cornell Rd,Menlo Park,CA,94025,3525000,1,1.0,,800,4160,1926,,4406,,,,,https://www.redfin.com/CA/Menlo-Park/69-Cornell-Rd-94025/home/1984503,,,N,Y,37.4454196,-122.1746715
PAST SALE,December-28-2022,Single Family Residential,474 Oconnor St,Menlo Park,CA,94025,2200000,2,1.0,Menlo Park,1560,10240,1929,,1410,,Sold,,,https://www.redfin.com/CA/Menlo-Park/474-Oconnor-St-94025/home/2055363,"bridgeMLS, Bay East AOR, or Contra Costa AOR",41008556,N,Y,37.4603056,-122.1456205
PAST SALE,January-6-2023,Single Family Residential,722 14th Ave,Menlo Park,CA,94025,1738000,4,1.0,MENLO PARK,1510,5350,1930,,1151,,Sold,,,https://www.redfin.com/CA/Menlo-Park/722-Fourteenth-Ave-94025/home/2034403,MLSListings,ML81910975,N,Y,37.4753531,-122.1924974
PAST SALE,March-1-2022,Single Family Residential,1035 Valparaiso Ave,Menlo Park,CA,94025,5050000,5,3.0,MENLO PARK,2300,22755,1954,,2196,,Sold,,,https://www.redfin.com/CA/Menlo-Park/1035-Valparaiso-Ave-94025/home/1754009,MLSListings,ML81865296,N,Y,37.4503096,-122.1916771
PAST SALE,December-22-2022,Single Family Residential,1437 Chilco St,Menlo Park,CA,94025,1093751,3,1.0,MENLO PARK,910,5000,1954,,1202,,Sold,,,https://www.redfin.com/CA/Menlo-Park/1437-Chilco-St-94025/home/1444329,MLSListings,ML81907671,N,Y,37.4789627,-122.1616026
PAST SALE,December-2-2022,Single Family Residential,1605 Bay Laurel Dr,Menlo Park,CA,94025,5950000,4,3.5,MENLO PARK,3250,20540,1952,,1831,,Sold,,,https://www.redfin.com/CA/Menlo-Park/1605-Bay-Laurel-Dr-94025/home/887216,MLSListings,ML81905988,N,Y,37.4350923,-122.1843165
PAST SALE,September-21-2022,Single Family Residential,2890 Fordham St,East Palo Alto,CA,94303,840000,3,2.0,EAST PALO ALTO,1010,5200,1953,,832,,Sold,,,https://www.redfin.com/CA/East-Palo-Alto/2890-Fordham-St-94303/home/862893,MLSListings,ML81894046,N,Y,37.4821739,-122.1338426
PAST SALE,October-19-2022,Single Family Residential,2171 Mills Ave,Menlo Park,CA,94025,4450000,4,3.5,MENLO PARK,2417,5026,2022,,1841,,Sold,,,https://www.redfin.com/CA/West-Menlo-Park/2171-Mills-Ave-94025/home/180067882,MLSListings,ML81897621,N,Y,37.4352142,-122.2119439
PAST SALE,August-4-2022,Single Family Residential,1172 Santa Cruz Ave,Menlo Park,CA,94025,4450000,4,4.0,MENLO PARK,2400,15675,1942,,1854,,Sold,,,https://www.redfin.com/CA/Menlo-Park/1172-Santa-Cruz-Ave-94025/home/1524884,MLSListings,ML81888484,N,Y,37.4457403,-122.1900144
PAST SALE,,Single Family Residential,1070 Cloud Ave,Menlo Park,CA,94025,3150000,3,2.0,,1500,5500,1947,,2100,,,,,https://www.redfin.com/CA/Menlo-Park/1070-Cloud-Ave-94025/home/1185161,,,N,Y,37.4334347,-122.1993255
PAST SALE,November-14-2022,Single Family Residential,532 Placitas Ave,Menlo Park,CA,94025,2880000,3,2.5,MENLO PARK,2130,10000,1955,,1352,,Sold,,,https://www.redfin.com/CA/Menlo-Park/532-Placitas-Ave-94025/home/1836733,MLSListings,ML81898075,N,Y,37.4729602,-122.1957449
PAST SALE,December-6-2022,Single Family Residential,670 10th Ave,Menlo Park,CA,94025,1610000,2,2.0,MENLO PARK,1270,8025,1926,,1268,,Sold,,,https://www.redfin.com/CA/Menlo-Park/670-10th-Ave-94025/home/1898329,MLSListings,ML81898226,N,Y,37.4757241,-122.1964818
PAST SALE,,Single Family Residential,234 Leland Ave,Menlo Park,CA,94025,5650000,5,4.0,,3013,8350,2016,,1875,,,,,https://www.redfin.com/CA/Menlo-Park/234-Leland-Ave-94025/home/1316659,,,N,Y,37.4290866,-122.1932955
PAST SALE,,Single Family Residential,1290 Bay Laurel Dr,Menlo Park,CA,94025,15562000,5,6.0,,5384,20900,1948,,2890,,,,,https://www.redfin.com/CA/Menlo-Park/1290-Bay-Laurel-Dr-94025/home/1408135,,,N,Y,37.4391496,-122.1837844
PAST SALE,September-22-2022,Single Family Residential,705 Live Oak Ave,Menlo Park,CA,94025,2600000,3,2.0,MENLO PARK,2120,5650,1935,,1226,,Sold,,,https://www.redfin.com/CA/Menlo-Park/705-Live-Oak-Ave-94025/home/1568410,MLSListings,ML81889268,N,Y,37.4507988,-122.1815007
PAST SALE,,Single Family Residential,5 Brent Ct,Menlo Park,CA,94025,4000000,4,5.0,,4500,6500,1975,,889,,,,,https://www.redfin.com/CA/Menlo-Park/5-Brent-Ct-94025/home/899584,,,N,Y,37.4250297,-122.2100322
PAST SALE,December-22-2022,Single Family Residential,1990 Sharon Rd,Menlo Park,CA,94025,2425000,3,2.0,MENLO PARK,1766,7590,1948,,1373,,Sold,,,https://www.redfin.com/CA/Menlo-Park/1990-Sharon-Rd-94025/home/1650656,MLSListings,ML81900549,N,Y,37.4327631,-122.1975129
PAST SALE,May-6-2022,Single Family Residential,481 Walsh Rd,Atherton,CA,94027,7300000,6,6.5,ATHERTON,8050,47797,1989,,907,,Sold,,,https://www.redfin.com/CA/Atherton/481-Walsh-Rd-94027/home/2050713,MLSListings,ML81869058,N,Y,37.4254739,-122.223597
PAST SALE,September-12-2022,Single Family Residential,781 Ivy Dr,Menlo Park,CA,94025,950000,3,1.0,MENLO PARK,1140,6120,1948,,833,,Sold,,,https://www.redfin.com/CA/Menlo-Park/781-Ivy-Dr-94025/home/1416594,MLSListings,ML81884944,N,Y,37.4762886,-122.1556451
PAST SALE,May-6-2022,Single Family Residential,903 Berkeley Ave,Menlo Park,CA,94025,6550000,5,5.5,MENLO PARK,5090,22809,2004,,1287,,Sold,,,https://www.redfin.com/CA/Menlo-Park/903-Berkeley-Ave-94025/home/1006899,MLSListings,ML81865859,N,Y,37.4692775,-122.1650478
PAST SALE,June-24-2022,Single Family Residential,1420 University Ave,Palo Alto,CA,94301,7500000,6,7.5,PALO ALTO,5334,22500,1936,,1406,,Sold,,,https://www.redfin.com/CA/Palo-Alto/1420-University-Ave-94301/home/1800373,MLSListings,ML81863706,N,Y,37.4552098,-122.1479714
